{
"type": "FeatureCollection",
"name": "sm_feature_banks",
"crs": { "type": "name", "properties": { "name": "urn:ogc:def:crs:EPSG::2276" } },
"features": [
{ "type": "Feature", "properties": { "X": -96.889435857899997, "Y": 32.895170352199997, "Name": "AMERICAN FIRST NATIONAL BANK", "Address": "2630 ROYAL LN", "City": "DALLAS", "Country": "USA", "County": "DALLAS", "State": "TEXAS", "ZIP": 75229.0, "Exists": "Y", "Type": "Retail Bank" }, "geometry": { "type": "Point", "coordinates": [ 2462809.2525724769, 7012311.4533982277 ] } },
{ "type": "Feature", "properties": { "X": -96.768954, "Y": 32.86044, "Name": "AMERICAN MOMENTUM BANK", "Address": "8080 N CNTRL EXPY # 1080", "City": "DALLAS", "Country": "USA", "County": "DALLAS", "State": "TEXAS", "ZIP": 75206.0, "Exists": "Y", "Type": "Retail Bank" }, "geometry": { "type": "Point", "coordinates": [ 2499993.885880217, 7000351.0554030538 ] } },
{ "type": "Feature", "properties": { "X": -96.8195925, "Y": 32.801193, "Name": "BANK OF AMERICA CORPORATION", "Address": "1950 N STEMMONS FWY", "City": "DALLAS", "Country": "USA", "County": "DALLAS", "State": "TEXAS", "ZIP": 75207.0, "Exists": "Y", "Type": "Retail Bank" }, "geometry": { "type": "Point", "coordinates": [ 2484792.2105749696, 6978546.9854942262 ] } },
{ "type": "Feature", "properties": { "X": -96.8273865, "Y": 32.999418, "Name": "Bank of America", "Address": "4625 FRANKFORD RD", "City": "DALLAS", "Country": "USA", "County": "COLLIN", "State": "TEXAS", "ZIP": 75287.0, "Exists": "Y", "Type": "Retail Bank" }, "geometry": { "type": "Point", "coordinates": [ 2481249.6333425492, 7050615.5211468935 ] } },
{ "type": "Feature", "properties": { "X": -96.871905, "Y": 32.896827, "Name": "Bank of America", "Address": "10815 WEBB CHAPEL RD", "City": "DALLAS", "Country": "USA", "County": "DALLAS", "State": "TEXAS", "ZIP": 75229.0, "Exists": "Y", "Type": "Retail Bank" }, "geometry": { "type": "Point", "coordinates": [ 2468181.8035071343, 7013081.9521853179 ] } },
{ "type": "Feature", "properties": { "X": -96.808010311999993, "Y": 32.864900414700003, "Name": "Bank of America", "Address": "6019 BERKSHIRE LN STE 100", "City": "DALLAS", "Country": "USA", "County": "DALLAS", "State": "TEXAS", "ZIP": 75225.0, "Exists": "Y", "Type": "Retail Bank" }, "geometry": { "type": "Point", "coordinates": [ 2487974.416480884, 7001877.7081896514 ] } },
{ "type": "Feature", "properties": { "X": -96.77844, "Y": 32.793264, "Name": "Bank of America", "Address": "3921 GASTON AVE", "City": "DALLAS", "Country": "USA", "County": "DALLAS", "State": "TEXAS", "ZIP": 75246.0, "Exists": "Y", "Type": "Retail Bank" }, "geometry": { "type": "Point", "coordinates": [ 2497482.0890665501, 6975867.489212811 ] } },
{ "type": "Feature", "properties": { "X": -96.769971982900003, "Y": 32.849262, "Name": "Bank of America", "Address": "5116 GREENVILLE AVE", "City": "DALLAS", "Country": "USA", "County": "DALLAS", "State": "TEXAS", "ZIP": 75206.0, "Exists": "Y", "Type": "Retail Bank" }, "geometry": { "type": "Point", "coordinates": [ 2499879.8880767226, 6996281.9985805601 ] } },
{ "type": "Feature", "properties": { "X": -96.799800696700004, "Y": 32.704944507599997, "Name": "Bank of America", "Address": "3523 S LANCASTER RD", "City": "DALLAS", "Country": "USA", "County": "DALLAS", "State": "TEXAS", "ZIP": 75216.0, "Exists": "Y", "Type": "Retail Bank" }, "geometry": { "type": "Point", "coordinates": [ 2491366.5442110598, 6943574.6896253079 ] } },
{ "type": "Feature", "properties": { "X": -96.682794021800007, "Y": 32.738859, "Name": "Bank of America", "Address": "1520 S BUCKNER BLVD", "City": "DALLAS", "Country": "USA", "County": "DALLAS", "State": "TEXAS", "ZIP": 75217.0, "Exists": "Y", "Type": "Retail Bank" }, "geometry": { "type": "Point", "coordinates": [ 2527313.3420679718, 6956574.4861322343 ] } },
{ "type": "Feature", "properties": { "X": -96.766704977200007, "Y": 32.867551226499998, "Name": "Bank of America", "Address": "6750 GREENVILLE AVE", "City": "DALLAS", "Country": "USA", "County": "DALLAS", "State": "TEXAS", "ZIP": 75231.0, "Exists": "Y", "Type": "Retail Bank" }, "geometry": { "type": "Point", "coordinates": [ 2500755.7386872172, 7002921.1644360572 ] } },
{ "type": "Feature", "properties": { "X": -96.82569, "Y": 32.99949, "Name": "Bank of America", "Address": "4727 FRANKFORD RD STE 321", "City": "DALLAS", "Country": "USA", "County": "COLLIN", "State": "TEXAS", "ZIP": 75287.0, "Exists": "Y", "Type": "Retail Bank" }, "geometry": { "type": "Point", "coordinates": [ 2481769.2415553033, 7050649.9967997223 ] } },
{ "type": "Feature", "properties": { "X": -96.856329295699993, "Y": 32.882167901400003, "Name": "Bank of America", "Address": "10071 MARSH LN", "City": "DALLAS", "Country": "USA", "County": "DALLAS", "State": "TEXAS", "ZIP": 75229.0, "Exists": "Y", "Type": "Retail Bank" }, "geometry": { "type": "Point", "coordinates": [ 2473045.199948296, 7007823.9518745542 ] } },
{ "type": "Feature", "properties": { "X": -96.7601475, "Y": 32.883813, "Name": "Bank of America", "Address": "7515 GREENVILLE AVE # 100", "City": "DALLAS", "Country": "USA", "County": "DALLAS", "State": "TEXAS", "ZIP": 75231.0, "Exists": "Y", "Type": "Retail Bank" }, "geometry": { "type": "Point", "coordinates": [ 2502556.7209776342, 7008897.8165247291 ] } },
{ "type": "Feature", "properties": { "X": -96.821547284000005, "Y": 32.9554096245, "Name": "Bank of America", "Address": "15110 DALLAS PKWY 100A", "City": "DALLAS", "Country": "USA", "County": "DALLAS", "State": "TEXAS", "ZIP": 75248.0, "Exists": "Y", "Type": "Retail Bank" }, "geometry": { "type": "Point", "coordinates": [ 2483412.1618258804, 7034613.7093185633 ] } },
{ "type": "Feature", "properties": { "X": -96.81237, "Y": 32.811291, "Name": "Bank of America", "Address": "4023 CEDAR SPRINGS RD", "City": "DALLAS", "Country": "USA", "County": "DALLAS", "State": "TEXAS", "ZIP": 75219.0, "Exists": "Y", "Type": "Retail Bank" }, "geometry": { "type": "Point", "coordinates": [ 2486952.0533681363, 6982255.7822104841 ] } },
{ "type": "Feature", "properties": { "X": -96.786927155699999, "Y": 32.849564196800003, "Name": "Bank of America", "Address": "6901 HILLCREST AVENUE", "City": "DALLAS", "Country": "USA", "County": "DALLAS", "State": "TEXAS", "ZIP": 75205.0, "Exists": "Y", "Type": "Retail Bank" }, "geometry": { "type": "Point", "coordinates": [ 2494482.557007879, 6996301.6015597284 ] } },
{ "type": "Feature", "properties": { "X": -96.755096884699995, "Y": 32.8119878535, "Name": "Bank of America", "Address": "6215 GASTON AVE", "City": "DALLAS", "Country": "USA", "County": "DALLAS", "State": "TEXAS", "ZIP": 75214.0, "Exists": "Y", "Type": "Retail Bank" }, "geometry": { "type": "Point", "coordinates": [ 2504466.7890078872, 6982898.8672103882 ] } },
{ "type": "Feature", "properties": { "X": -96.825888159000002, "Y": 32.829544255099997, "Name": "Bank of America", "Address": "5636 LEMMON AVE", "City": "DALLAS", "Country": "USA", "County": "DALLAS", "State": "TEXAS", "ZIP": 75209.0, "Exists": "Y", "Type": "Retail Bank" }, "geometry": { "type": "Point", "coordinates": [ 2482766.7471062243, 6988934.6166218072 ] } },
{ "type": "Feature", "properties": { "X": -96.825927840999995, "Y": 32.741131720799999, "Name": "Bank of America", "Address": "220 W 12TH ST", "City": "DALLAS", "Country": "USA", "County": "DALLAS", "State": "TEXAS", "ZIP": 75208.0, "Exists": "Y", "Type": "Retail Bank" }, "geometry": { "type": "Point", "coordinates": [ 2483194.0822095573, 6956668.1709842235 ] } },
{ "type": "Feature", "properties": { "X": -96.803825589100001, "Y": 32.779679047499997, "Name": "Bank of America", "Address": "901 MAIN ST STE 100", "City": "DALLAS", "Country": "USA", "County": "DALLAS", "State": "TEXAS", "ZIP": 75202.0, "Exists": "Y", "Type": "Retail Bank" }, "geometry": { "type": "Point", "coordinates": [ 2489738.6262070537, 6970921.2071106434 ] } },
{ "type": "Feature", "properties": { "X": -96.7897485, "Y": 32.805594, "Name": "Bank of America", "Address": "2500 N HASKELL AVE", "City": "DALLAS", "Country": "USA", "County": "DALLAS", "State": "TEXAS", "ZIP": 75204.0, "Exists": "Y", "Type": "Retail Bank" }, "geometry": { "type": "Point", "coordinates": [ 2493934.6378281415, 6980295.8487944007 ] } },
{ "type": "Feature", "properties": { "X": -96.804207, "Y": 32.794641, "Name": "Bank of America", "Address": "100 CRESCENT CT STE 30", "City": "DALLAS", "Country": "USA", "County": "DALLAS", "State": "TEXAS", "ZIP": 75201.0, "Exists": "Y", "Type": "Retail Bank" }, "geometry": { "type": "Point", "coordinates": [ 2489557.330965966, 6976239.6082192212 ] } },
{ "type": "Feature", "properties": { "X": -96.7938911241, "Y": 32.767768365499997, "Name": "Bank of America", "Address": "1633 COCKRELL AVE", "City": "DALLAS", "Country": "USA", "County": "DALLAS", "State": "TEXAS", "ZIP": 75212.0, "Exists": "Y", "Type": "Retail Bank" }, "geometry": { "type": "Point", "coordinates": [ 2492885.5073804706, 6966515.8491234779 ] } },
{ "type": "Feature", "properties": { "X": -96.755543709899996, "Y": 32.861923253900002, "Name": "Bank of America", "Address": "6166 RETAIL RD", "City": "DALLAS", "Country": "USA", "County": "DALLAS", "State": "TEXAS", "ZIP": 75231.0, "Exists": "Y", "Type": "Retail Bank" }, "geometry": { "type": "Point", "coordinates": [ 2504023.2475721389, 7000784.4754679799 ] } },
{ "type": "Feature", "properties": { "X": -96.875499714300005, "Y": 32.720262467600001, "Name": "Bank of America", "Address": "3404 W ILLINOIS AVE # 200", "City": "DALLAS", "Country": "USA", "County": "DALLAS", "State": "TEXAS", "ZIP": 75211.0, "Exists": "Y", "Type": "Retail Bank" }, "geometry": { "type": "Point", "coordinates": [ 2468076.7371162176, 6948687.8811705559 ] } },
{ "type": "Feature", "properties": { "X": -96.7897485, "Y": 32.805594, "Name": "Bank of America", "Address": "2500 N HASKELL AVE", "City": "DALLAS", "Country": "USA", "County": "DALLAS", "State": "TEXAS", "ZIP": 75204.0, "Exists": "Y", "Type": "Retail Bank" }, "geometry": { "type": "Point", "coordinates": [ 2493934.6378281415, 6980295.8487944007 ] } },
{ "type": "Feature", "properties": { "X": -96.803830424699996, "Y": 32.910369737400003, "Name": "Bank of America", "Address": "11868 PRESTON RD", "City": "DALLAS", "Country": "USA", "County": "DALLAS", "State": "TEXAS", "ZIP": 75230.0, "Exists": "Y", "Type": "Retail Bank" }, "geometry": { "type": "Point", "coordinates": [ 2489197.095465973, 7018316.7461776435 ] } },
{ "type": "Feature", "properties": { "X": -96.686976039100003, "Y": 32.796575709599999, "Name": "Bank of America", "Address": "9226 E R L THORNTON FWY", "City": "DALLAS", "Country": "USA", "County": "DALLAS", "State": "TEXAS", "ZIP": 75228.0, "Exists": "Y", "Type": "Retail Bank" }, "geometry": { "type": "Point", "coordinates": [ 2525593.5594183058, 6977401.461866647 ] } },
{ "type": "Feature", "properties": { "X": -96.803803204299996, "Y": 32.895624802900002, "Name": "Bank of America", "Address": "10830 PRESTON RD", "City": "DALLAS", "Country": "USA", "County": "DALLAS", "State": "TEXAS", "ZIP": 75230.0, "Exists": "Y", "Type": "Retail Bank" }, "geometry": { "type": "Point", "coordinates": [ 2489088.2377440482, 7012975.3352725655 ] } },
{ "type": "Feature", "properties": { "X": -96.857873363400003, "Y": 32.7614251571, "Name": "Bank of America", "Address": "2130 FORT WORTH AVE", "City": "DALLAS", "Country": "USA", "County": "DALLAS", "State": "TEXAS", "ZIP": 75211.0, "Exists": "Y", "Type": "Retail Bank" }, "geometry": { "type": "Point", "coordinates": [ 2473257.8760321438, 6963895.0659792274 ] } },
{ "type": "Feature", "properties": { "X": -96.800838676400005, "Y": 32.982241776000002, "Name": "Bank of America", "Address": "6085 CAMPBELL RD", "City": "DALLAS", "Country": "USA", "County": "DALLAS", "State": "TEXAS", "ZIP": 75248.0, "Exists": "Y", "Type": "Retail Bank" }, "geometry": { "type": "Point", "coordinates": [ 2489580.2108414769, 7044576.3619653881 ] } },
{ "type": "Feature", "properties": { "X": -96.7185899288, "Y": 32.909597469399998, "Name": "Bank of America", "Address": "9779 FOREST LN", "City": "DALLAS", "Country": "USA", "County": "DALLAS", "State": "TEXAS", "ZIP": 75243.0, "Exists": "Y", "Type": "Retail Bank" }, "geometry": { "type": "Point", "coordinates": [ 2515024.3531945497, 7018809.7904671431 ] } },
{ "type": "Feature", "properties": { "X": -96.7381605, "Y": 32.908635, "Name": "Bank of America", "Address": "9308 FOREST LN", "City": "DALLAS", "Country": "USA", "County": "DALLAS", "State": "TEXAS", "ZIP": 75243.0, "Exists": "Y", "Type": "Retail Bank" }, "geometry": { "type": "Point", "coordinates": [ 2509153.6434793025, 7018039.4665484726 ] } },
{ "type": "Feature", "properties": { "X": -96.860475, "Y": 32.647686471900002, "Name": "Bank of America", "Address": "2535 W WHEATLAND RD", "City": "DALLAS", "Country": "USA", "County": "DALLAS", "State": "TEXAS", "ZIP": 75237.0, "Exists": "Y", "Type": "Retail Bank" }, "geometry": { "type": "Point", "coordinates": [ 2473101.6853996366, 6922657.4817878902 ] } },
{ "type": "Feature", "properties": { "X": -96.670512, "Y": 32.834713476499999, "Name": "Bank of America", "Address": "2606 GUS THOMASSON RD", "City": "DALLAS", "Country": "USA", "County": "DALLAS", "State": "TEXAS", "ZIP": 75228.0, "Exists": "Y", "Type": "Retail Bank" }, "geometry": { "type": "Point", "coordinates": [ 2530381.2735961378, 6991375.9066867232 ] } },
{ "type": "Feature", "properties": { "X": -96.786927155699999, "Y": 32.849564196800003, "Name": "Bank of America", "Address": "6901 HILLCREST AVE", "City": "DALLAS", "Country": "USA", "County": "DALLAS", "State": "TEXAS", "ZIP": 75205.0, "Exists": "Y", "Type": "Retail Bank" }, "geometry": { "type": "Point", "coordinates": [ 2494482.557007879, 6996301.6015597284 ] } },
{ "type": "Feature", "properties": { "X": -96.803825589100001, "Y": 32.779679047499997, "Name": "Bank of America", "Address": "901 MAIN ST", "City": "DALLAS", "Country": "USA", "County": "DALLAS", "State": "TEXAS", "ZIP": 75202.0, "Exists": "Y", "Type": "Retail Bank" }, "geometry": { "type": "Point", "coordinates": [ 2489738.6262070537, 6970921.2071106434 ] } },
{ "type": "Feature", "properties": { "X": -96.810659329399996, "Y": 32.864789275, "Name": "BANK SNB", "Address": "5950 BERKSHIRE LN STE 350", "City": "DALLAS", "Country": "USA", "County": "DALLAS", "State": "TEXAS", "ZIP": 75225.0, "Exists": "Y", "Type": "Retail Bank" }, "geometry": { "type": "Point", "coordinates": [ 2487165.4837155491, 7001655.1088973135 ] } },
{ "type": "Feature", "properties": { "X": -96.7621095, "Y": 32.773968, "Name": "Bank of America", "Address": "3300 MRTN LTHR KNG JR BLV", "City": "DALLAS", "Country": "USA", "County": "DALLAS", "State": "TEXAS", "ZIP": 75210.0, "Exists": "Y", "Type": "Retail Bank" }, "geometry": { "type": "Point", "coordinates": [ 2502615.592250973, 6968931.1077443957 ] } },
{ "type": "Feature", "properties": { "X": -96.9036345, "Y": 32.895674493800001, "Name": "BBCN BANK", "Address": "2237 ROYAL LN", "City": "DALLAS", "Country": "USA", "County": "DALLAS", "State": "TEXAS", "ZIP": 75229.0, "Exists": "Y", "Type": "Retail Bank" }, "geometry": { "type": "Point", "coordinates": [ 2458448.42599231, 7012670.5924437344 ] } },
{ "type": "Feature", "properties": { "X": -96.8035725, "Y": 32.954886, "Name": "BB&T CORPORATION", "Address": "15150 PRESTON RD", "City": "DALLAS", "Country": "USA", "County": "DALLAS", "State": "TEXAS", "ZIP": 75248.0, "Exists": "Y", "Type": "Retail Bank" }, "geometry": { "type": "Point", "coordinates": [ 2488810.9016845524, 7034533.4338885546 ] } },
{ "type": "Feature", "properties": { "X": -96.802866, "Y": 32.95026, "Name": "BBVA COMPASS", "Address": "14852 PRESTON RD", "City": "DALLAS", "Country": "USA", "County": "DALLAS", "State": "TEXAS", "ZIP": 75254.0, "Exists": "Y", "Type": "Retail Bank" }, "geometry": { "type": "Point", "coordinates": [ 2489054.759464547, 7032854.166577816 ] } },
{ "type": "Feature", "properties": { "X": -96.722419221600006, "Y": 32.896004066099998, "Name": "BBVA COMPASS BANCSHARES, INC.", "Address": "8620 SKILLMAN ST", "City": "DALLAS", "Country": "USA", "County": "DALLAS", "State": "TEXAS", "ZIP": 75243.0, "Exists": "Y", "Type": "Retail Bank" }, "geometry": { "type": "Point", "coordinates": [ 2514061.4213933796, 7013526.2606799006 ] } },
{ "type": "Feature", "properties": { "X": -96.7725765, "Y": 32.910426, "Name": "BBVA COMPASS BANCSHARES, INC.", "Address": "7777 FOREST LN SUITE C-130", "City": "DALLAS", "Country": "USA", "County": "DALLAS", "State": "TEXAS", "ZIP": 75230.0, "Exists": "Y", "Type": "Retail Bank" }, "geometry": { "type": "Point", "coordinates": [ 2498582.7410647124, 7018515.5695988983 ] } },
{ "type": "Feature", "properties": { "X": -96.7626495, "Y": 32.99481, "Name": "BBVA COMPASS BANCSHARES, INC.", "Address": "8000 FRANKFORD RD", "City": "DALLAS", "Country": "USA", "County": "COLLIN", "State": "TEXAS", "ZIP": 75252.0, "Exists": "Y", "Type": "Retail Bank" }, "geometry": { "type": "Point", "coordinates": [ 2501120.9997677207, 7049261.3847475648 ] } },
{ "type": "Feature", "properties": { "X": -96.843940859699998, "Y": 32.9988102537, "Name": "Bank of America", "Address": "18229 MIDWAY RD", "City": "DALLAS", "Country": "USA", "County": "COLLIN", "State": "TEXAS", "ZIP": 75287.0, "Exists": "Y", "Type": "Retail Bank" }, "geometry": { "type": "Point", "coordinates": [ 2476038.9807061404, 7050316.842610389 ] } },
{ "type": "Feature", "properties": { "X": -96.810933786999996, "Y": 32.864891213, "Name": "BEAL BANK", "Address": "5909 BERKSHIRE LN", "City": "DALLAS", "Country": "USA", "County": "DALLAS", "State": "TEXAS", "ZIP": 75225.0, "Exists": "Y", "Type": "Retail Bank" }, "geometry": { "type": "Point", "coordinates": [ 2487079.7174828798, 7001760.4164294749 ] } },
{ "type": "Feature", "properties": { "X": -96.828849377300003, "Y": 32.743029880400002, "Name": "BBVA COMPASS BANCSHARES, INC.", "Address": "410 W JEFFERSON BLVD", "City": "DALLAS", "Country": "USA", "County": "DALLAS", "State": "TEXAS", "ZIP": 75208.0, "Exists": "Y", "Type": "Retail Bank" }, "geometry": { "type": "Point", "coordinates": [ 2482284.9504976422, 6957344.3382670581 ] } },
{ "type": "Feature", "properties": { "X": -96.802263, "Y": 32.791491, "Name": "BENCHMARK BANK", "Address": "2100 MCKINNEY AVE STE 100", "City": "DALLAS", "Country": "USA", "County": "DALLAS", "State": "TEXAS", "ZIP": 75201.0, "Exists": "Y", "Type": "Retail Bank" }, "geometry": { "type": "Point", "coordinates": [ 2490173.1177921295, 6975103.4218433052 ] } },
{ "type": "Feature", "properties": { "X": -96.8714595, "Y": 32.856777, "Name": "BBVA COMPASS BANCSHARES, INC.", "Address": "2923 W NORTHWEST HWY", "City": "DALLAS", "Country": "USA", "County": "DALLAS", "State": "TEXAS", "ZIP": 75220.0, "Exists": "Y", "Type": "Retail Bank" }, "geometry": { "type": "Point", "coordinates": [ 2468544.3834906369, 6998515.3464760631 ] } },
{ "type": "Feature", "properties": { "X": -96.8098365, "Y": 32.861943, "Name": "BOKF, NATIONAL ASSOCIATION", "Address": "5956 SHERRY LN STE 917", "City": "DALLAS", "Country": "USA", "County": "DALLAS", "State": "TEXAS", "ZIP": 75225.0, "Exists": "Y", "Type": "Retail Bank" }, "geometry": { "type": "Point", "coordinates": [ 2487433.8332444727, 7000693.3939572275 ] } },
{ "type": "Feature", "properties": { "X": -96.888681, "Y": 32.894658, "Name": "BOKF, NATIONAL ASSOCIATION", "Address": "2650 ROYAL LN", "City": "DALLAS", "Country": "USA", "County": "DALLAS", "State": "TEXAS", "ZIP": 75229.0, "Exists": "Y", "Type": "Retail Bank" }, "geometry": { "type": "Point", "coordinates": [ 2463045.5824803859, 7012213.563174054 ] } },
{ "type": "Feature", "properties": { "X": -96.775965, "Y": 32.864994, "Name": "BOKF, NATIONAL ASSOCIATION", "Address": "7600 W NORTHWEST HWY", "City": "DALLAS", "Country": "USA", "County": "DALLAS", "State": "TEXAS", "ZIP": 75225.0, "Exists": "Y", "Type": "Retail Bank" }, "geometry": { "type": "Point", "coordinates": [ 2497814.2701607198, 7001972.2093129754 ] } },
{ "type": "Feature", "properties": { "X": -96.762749091900005, "Y": 32.883413572599999, "Name": "BOKF, NATIONAL ASSOCIATION", "Address": "8277 WALNUT HILL LN", "City": "DALLAS", "Country": "USA", "County": "DALLAS", "State": "TEXAS", "ZIP": 75231.0, "Exists": "Y", "Type": "Retail Bank" }, "geometry": { "type": "Point", "coordinates": [ 2501755.6172648817, 7008802.690074563 ] } },
{ "type": "Feature", "properties": { "X": -96.701040953399996, "Y": 32.909212161, "Name": "BRANCH BANKING AND TRUST COMPANY", "Address": "10641 FOREST LN", "City": "DALLAS", "Country": "USA", "County": "DALLAS", "State": "TEXAS", "ZIP": 75243.0, "Exists": "Y", "Type": "Retail Bank" }, "geometry": { "type": "Point", "coordinates": [ 2520535.639087975, 7018536.9324170649 ] } },
{ "type": "Feature", "properties": { "X": -96.869131053800004, "Y": 32.819707057199999, "Name": "BRANCH BANKING AND TRUST COMPANY", "Address": "7320 N STEMMONS FWY", "City": "DALLAS", "Country": "USA", "County": "DALLAS", "State": "TEXAS", "ZIP": 75247.0, "Exists": "Y", "Type": "Retail Bank" }, "geometry": { "type": "Point", "coordinates": [ 2469572.3194268793, 6985092.1508815587 ] } },
{ "type": "Feature", "properties": { "X": -96.769899, "Y": 32.822739, "Name": "BRANCH BANKING AND TRUST COMPANY", "Address": "2724 GREENVILLE AVE", "City": "DALLAS", "Country": "USA", "County": "DALLAS", "State": "TEXAS", "ZIP": 75206.0, "Exists": "Y", "Type": "Retail Bank" }, "geometry": { "type": "Point", "coordinates": [ 2499929.6363368034, 6986632.29248631 ] } },
{ "type": "Feature", "properties": { "X": -96.804156467200002, "Y": 32.954731102399997, "Name": "BRANCH BANKING AND TRUST COMPANY", "Address": "15150 PRESTON RD STE 100", "City": "DALLAS", "Country": "USA", "County": "DALLAS", "State": "TEXAS", "ZIP": 75248.0, "Exists": "Y", "Type": "Retail Bank" }, "geometry": { "type": "Point", "coordinates": [ 2488810.9016845524, 7034533.4338885546 ] } },
{ "type": "Feature", "properties": { "X": -96.803469, "Y": 32.909769, "Name": "BRANCH BANKING AND TRUST COMPANY", "Address": "11800 PRESTON RD", "City": "DALLAS", "Country": "USA", "County": "DALLAS", "State": "TEXAS", "ZIP": 75230.0, "Exists": "Y", "Type": "Retail Bank" }, "geometry": { "type": "Point", "coordinates": [ 2489107.7042405605, 7018122.0949921459 ] } },
{ "type": "Feature", "properties": { "X": -96.766497526199998, "Y": 32.881140526199999, "Name": "BRANCH BANKING AND TRUST COMPANY", "Address": "8144 WALNUT HILL LN # 180", "City": "DALLAS", "Country": "USA", "County": "DALLAS", "State": "TEXAS", "ZIP": 75231.0, "Exists": "Y", "Type": "Retail Bank" }, "geometry": { "type": "Point", "coordinates": [ 2500719.7007015496, 7007783.5126509815 ] } },
{ "type": "Feature", "properties": { "X": -96.798902058300001, "Y": 32.787276692500001, "Name": "BRANCH BANKING AND TRUST COMPANY", "Address": "2001 ROSS AVE STE 100", "City": "DALLAS", "Country": "USA", "County": "DALLAS", "State": "TEXAS", "ZIP": 75201.0, "Exists": "Y", "Type": "Retail Bank" }, "geometry": { "type": "Point", "coordinates": [ 2491138.9590363055, 6973704.3905206472 ] } },
{ "type": "Feature", "properties": { "X": -96.757330547099997, "Y": 32.792525018500001, "Name": "CAPITAL ONE BANK", "Address": "5021 GARLAND AVE", "City": "DALLAS", "Country": "USA", "County": "DALLAS", "State": "TEXAS", "ZIP": 75223.0, "Exists": "Y", "Type": "Retail Bank" }, "geometry": { "type": "Point", "coordinates": [ 2503972.2086322159, 6975705.6263475567 ] } },
{ "type": "Feature", "properties": { "X": -96.822228843800005, "Y": 32.7571261171, "Name": "BRANCH BANKING AND TRUST COMPANY", "Address": "1133 N ZANG BLVD STE 101", "City": "DALLAS", "Country": "USA", "County": "DALLAS", "State": "TEXAS", "ZIP": 75203.0, "Exists": "Y", "Type": "Retail Bank" }, "geometry": { "type": "Point", "coordinates": [ 2484180.1819433868, 6962579.8192658871 ] } },
{ "type": "Feature", "properties": { "X": -96.829398794400007, "Y": 32.989737343000002, "Name": "CAPITAL ONE FINANCIAL CORPORATION", "Address": "17561 DALLAS PKWY", "City": "DALLAS", "Country": "USA", "County": "COLLIN", "State": "TEXAS", "ZIP": 75287.0, "Exists": "Y", "Type": "Retail Bank" }, "geometry": { "type": "Point", "coordinates": [ 2480612.3941314667, 7047045.753023982 ] } },
{ "type": "Feature", "properties": { "X": -96.8099625, "Y": 32.816205, "Name": "CAPITAL ONE BANK", "Address": "4208 LEMMON AVE", "City": "DALLAS", "Country": "USA", "County": "DALLAS", "State": "TEXAS", "ZIP": 75219.0, "Exists": "Y", "Type": "Retail Bank" }, "geometry": { "type": "Point", "coordinates": [ 2487662.8288494647, 6984055.1778898984 ] } },
{ "type": "Feature", "properties": { "X": -96.804187795700003, "Y": 32.872420077500003, "Name": "CAPITAL ONE BANK", "Address": "8989 PRESTON RD", "City": "DALLAS", "Country": "USA", "County": "DALLAS", "State": "TEXAS", "ZIP": 75225.0, "Exists": "Y", "Type": "Retail Bank" }, "geometry": { "type": "Point", "coordinates": [ 2489106.4798335582, 7004532.4784706384 ] } },
{ "type": "Feature", "properties": { "X": -96.881417567400007, "Y": 32.9095144769, "Name": "CAPITAL ONE BANK", "Address": "2903 FOREST LN", "City": "DALLAS", "Country": "USA", "County": "DALLAS", "State": "TEXAS", "ZIP": 75234.0, "Exists": "Y", "Type": "Retail Bank" }, "geometry": { "type": "Point", "coordinates": [ 2465191.4154590517, 7017652.0988848954 ] } },
{ "type": "Feature", "properties": { "X": -96.820890045200002, "Y": 32.851115248299998, "Name": "BRANCH BANKING AND TRUST COMPANY", "Address": "5330 W LOVERS LN STE 110", "City": "DALLAS", "Country": "USA", "County": "DALLAS", "State": "TEXAS", "ZIP": 75209.0, "Exists": "Y", "Type": "Retail Bank" }, "geometry": { "type": "Point", "coordinates": [ 2484103.30906564, 6996700.2697256505 ] } },
{ "type": "Feature", "properties": { "X": -96.80562, "Y": 32.792085, "Name": "CITY BANK", "Address": "2525 MCKINNON ST STE 100", "City": "DALLAS", "Country": "USA", "County": "DALLAS", "State": "TEXAS", "ZIP": 75201.0, "Exists": "Y", "Type": "Retail Bank" }, "geometry": { "type": "Point", "coordinates": [ 2489138.2028672248, 6975302.8400796503 ] } },
{ "type": "Feature", "properties": { "X": -96.7763622043, "Y": 32.869983301300003, "Name": "COMERICA BANK", "Address": "8850 BOEDEKER DR", "City": "DALLAS", "Country": "USA", "County": "DALLAS", "State": "TEXAS", "ZIP": 75225.0, "Exists": "Y", "Type": "Retail Bank" }, "geometry": { "type": "Point", "coordinates": [ 2497662.5516321361, 7003785.1052934825 ] } },
{ "type": "Feature", "properties": { "X": -96.829965, "Y": 32.998041, "Name": "COMERICA BANK", "Address": "4581 FRANKFORD RD", "City": "DALLAS", "Country": "USA", "County": "COLLIN", "State": "TEXAS", "ZIP": 75287.0, "Exists": "Y", "Type": "Retail Bank" }, "geometry": { "type": "Point", "coordinates": [ 2480467.2126633078, 7050102.0389061421 ] } },
{ "type": "Feature", "properties": { "X": -96.744166558399996, "Y": 32.863262177300001, "Name": "COMERICA BANK", "Address": "6510 ABRAMS RD STE 660", "City": "DALLAS", "Country": "USA", "County": "DALLAS", "State": "TEXAS", "ZIP": 75231.0, "Exists": "Y", "Type": "Retail Bank" }, "geometry": { "type": "Point", "coordinates": [ 2507758.7279620469, 7001432.8914939761 ] } },
{ "type": "Feature", "properties": { "X": -96.871957879000007, "Y": 32.909818303900003, "Name": "COMERICA BANK", "Address": "3115 FOREST LN", "City": "DALLAS", "Country": "USA", "County": "DALLAS", "State": "TEXAS", "ZIP": 75234.0, "Exists": "Y", "Type": "Retail Bank" }, "geometry": { "type": "Point", "coordinates": [ 2468093.1009286344, 7017913.9861563891 ] } },
{ "type": "Feature", "properties": { "X": -96.867563728099995, "Y": 32.647694046799998, "Name": "COMERICA BANK", "Address": "2875 W WHEATLAND RD", "City": "DALLAS", "Country": "USA", "County": "DALLAS", "State": "TEXAS", "ZIP": 75237.0, "Exists": "Y", "Type": "Retail Bank" }, "geometry": { "type": "Point", "coordinates": [ 2470922.4131833911, 6922478.0208607316 ] } },
{ "type": "Feature", "properties": { "X": -96.865407826799995, "Y": 32.757935174000004, "Name": "COMERICA BANK", "Address": "2727 FORT WORTH AVE", "City": "DALLAS", "Country": "USA", "County": "DALLAS", "State": "TEXAS", "ZIP": 75211.0, "Exists": "Y", "Type": "Retail Bank" }, "geometry": { "type": "Point", "coordinates": [ 2470924.8784015477, 6962672.1163253933 ] } },
{ "type": "Feature", "properties": { "X": -96.7949055, "Y": 33.008958, "Name": "COMERICA BANK", "Address": "19176 PRESTON RD", "City": "DALLAS", "Country": "USA", "County": "COLLIN", "State": "TEXAS", "ZIP": 75252.0, "Exists": "Y", "Type": "Retail Bank" }, "geometry": { "type": "Point", "coordinates": [ 2491149.6332275569, 7054245.912508145 ] } },
{ "type": "Feature", "properties": { "X": -96.822561525500006, "Y": 32.948639469600003, "Name": "COMERICA BANK", "Address": "5006 VERDE VALLEY LN", "City": "DALLAS", "Country": "USA", "County": "DALLAS", "State": "TEXAS", "ZIP": 75254.0, "Exists": "Y", "Type": "Retail Bank" }, "geometry": { "type": "Point", "coordinates": [ 2483023.5100441426, 7031981.1821033061 ] } },
{ "type": "Feature", "properties": { "X": -96.792462177399997, "Y": 32.816757817199999, "Name": "COMERICA BANK", "Address": "3202 N FITZHUGH AVE", "City": "DALLAS", "Country": "USA", "County": "DALLAS", "State": "TEXAS", "ZIP": 75204.0, "Exists": "Y", "Type": "Retail Bank" }, "geometry": { "type": "Point", "coordinates": [ 2493034.9900211394, 6984343.2006078064 ] } },
{ "type": "Feature", "properties": { "X": -96.769719432100004, "Y": 32.851521754899998, "Name": "COMERICA BANK", "Address": "5302 GREENVILLE AVE", "City": "DALLAS", "Country": "USA", "County": "DALLAS", "State": "TEXAS", "ZIP": 75206.0, "Exists": "Y", "Type": "Retail Bank" }, "geometry": { "type": "Point", "coordinates": [ 2499915.1412870586, 6997078.331305474 ] } },
{ "type": "Feature", "properties": { "X": -96.836103, "Y": 32.7204604621, "Name": "COMERICA BANK", "Address": "753 W ILLINOIS AVE", "City": "DALLAS", "Country": "USA", "County": "DALLAS", "State": "TEXAS", "ZIP": 75224.0, "Exists": "Y", "Type": "Retail Bank" }, "geometry": { "type": "Point", "coordinates": [ 2480183.3303570598, 6949211.3889818043 ] } },
{ "type": "Feature", "properties": { "X": -96.752927936099994, "Y": 32.817638545900003, "Name": "COMERICA BANK", "Address": "2311 ABRAMS RD", "City": "DALLAS", "Country": "USA", "County": "DALLAS", "State": "TEXAS", "ZIP": 75214.0, "Exists": "Y", "Type": "Retail Bank" }, "geometry": { "type": "Point", "coordinates": [ 2505059.079818055, 6984863.7038318962 ] } },
{ "type": "Feature", "properties": { "X": -96.7519575, "Y": 32.791986, "Name": "COMERICA BANK", "Address": "5201 E R L THORNTON FWY", "City": "DALLAS", "Country": "USA", "County": "DALLAS", "State": "TEXAS", "ZIP": 75223.0, "Exists": "Y", "Type": "Retail Bank" }, "geometry": { "type": "Point", "coordinates": [ 2505626.2945628911, 6975536.9852806479 ] } },
{ "type": "Feature", "properties": { "X": -96.8177925, "Y": 32.9094085415, "Name": "COMERICA BANK", "Address": "5200 FOREST LN", "City": "DALLAS", "Country": "USA", "County": "DALLAS", "State": "TEXAS", "ZIP": 75244.0, "Exists": "Y", "Type": "Retail Bank" }, "geometry": { "type": "Point", "coordinates": [ 2484716.6913690567, 7017802.5998962224 ] } },
{ "type": "Feature", "properties": { "X": -96.808629295700001, "Y": 32.8636701593, "Name": "COMPASS BANCSHARES, INC.", "Address": "8303 DOUGLAS AVE STE 200", "City": "DALLAS", "Country": "USA", "County": "DALLAS", "State": "TEXAS", "ZIP": 75225.0, "Exists": "Y", "Type": "Retail Bank" }, "geometry": { "type": "Point", "coordinates": [ 2487794.3331796378, 7001327.6298934817 ] } },
{ "type": "Feature", "properties": { "X": -96.685355334500002, "Y": 32.847615845699998, "Name": "COMERICA BANK", "Address": "11155 GARLAND RD", "City": "DALLAS", "Country": "USA", "County": "DALLAS", "State": "TEXAS", "ZIP": 75218.0, "Exists": "Y", "Type": "Retail Bank" }, "geometry": { "type": "Point", "coordinates": [ 2525657.8319275528, 6996258.493378222 ] } },
{ "type": "Feature", "properties": { "X": -96.7519575, "Y": 32.791986, "Name": "COMERICA BANK", "Address": "5201 E R L THORNTON FWY", "City": "DALLAS", "Country": "USA", "County": "DALLAS", "State": "TEXAS", "ZIP": 75223.0, "Exists": "Y", "Type": "Retail Bank" }, "geometry": { "type": "Point", "coordinates": [ 2505626.2945628911, 6975536.9852806479 ] } },
{ "type": "Feature", "properties": { "X": -96.752737662599998, "Y": 32.812393023299997, "Name": "COMPASS BANK", "Address": "1824 ABRAMS RD", "City": "DALLAS", "Country": "USA", "County": "DALLAS", "State": "TEXAS", "ZIP": 75214.0, "Exists": "Y", "Type": "Retail Bank" }, "geometry": { "type": "Point", "coordinates": [ 2505342.4460492134, 6982955.9937365651 ] } },
{ "type": "Feature", "properties": { "X": -96.7725765, "Y": 32.910426, "Name": "COMPASS BANK", "Address": "7777 FOREST LN STE C130", "City": "DALLAS", "Country": "USA", "County": "DALLAS", "State": "TEXAS", "ZIP": 75230.0, "Exists": "Y", "Type": "Retail Bank" }, "geometry": { "type": "Point", "coordinates": [ 2498582.7410647124, 7018515.5695988983 ] } },
{ "type": "Feature", "properties": { "X": -96.768954, "Y": 32.86044, "Name": "COMPASS BANK", "Address": "8080 N CENTRAL EXPY", "City": "DALLAS", "Country": "USA", "County": "DALLAS", "State": "TEXAS", "ZIP": 75206.0, "Exists": "Y", "Type": "Retail Bank" }, "geometry": { "type": "Point", "coordinates": [ 2499993.885880217, 7000351.0554030538 ] } },
{ "type": "Feature", "properties": { "X": -96.768954, "Y": 32.86044, "Name": "COMPASS BANK", "Address": "8080 N CENTRAL EXPY # 180", "City": "DALLAS", "Country": "USA", "County": "DALLAS", "State": "TEXAS", "ZIP": 75206.0, "Exists": "Y", "Type": "Retail Bank" }, "geometry": { "type": "Point", "coordinates": [ 2499993.885880217, 7000351.0554030538 ] } },
{ "type": "Feature", "properties": { "X": -96.7991129949, "Y": 32.793223936099999, "Name": "COMERICA BANK", "Address": "2121 MAPLE ROUTH", "City": "DALLAS", "Country": "USA", "County": "DALLAS", "State": "TEXAS", "ZIP": 75201.0, "Exists": "Y", "Type": "Retail Bank" }, "geometry": { "type": "Point", "coordinates": [ 2491135.9239373803, 6975685.514839232 ] } },
{ "type": "Feature", "properties": { "X": -96.6917655, "Y": 32.793759, "Name": "COMPASS BANK", "Address": "3939 SAINT FRANCIS AVE", "City": "DALLAS", "Country": "USA", "County": "DALLAS", "State": "TEXAS", "ZIP": 75228.0, "Exists": "Y", "Type": "Retail Bank" }, "geometry": { "type": "Point", "coordinates": [ 2524108.6896846294, 6976494.9656481445 ] } },
{ "type": "Feature", "properties": { "X": -96.803556855799997, "Y": 32.986690446899999, "Name": "COPPERMARK BANK", "Address": "17177 PRESTON RD STE 150", "City": "DALLAS", "Country": "USA", "County": "DALLAS", "State": "TEXAS", "ZIP": 75248.0, "Exists": "Y", "Type": "Retail Bank" }, "geometry": { "type": "Point", "coordinates": [ 2488350.3747184724, 7046216.7786320597 ] } },
{ "type": "Feature", "properties": { "X": -96.8946345, "Y": 32.897547, "Name": "EAST WEST BANK", "Address": "2527 ROYAL LN STE 155", "City": "DALLAS", "Country": "USA", "County": "DALLAS", "State": "TEXAS", "ZIP": 75229.0, "Exists": "Y", "Type": "Retail Bank" }, "geometry": { "type": "Point", "coordinates": [ 2461202.4267178923, 7013236.506994307 ] } },
{ "type": "Feature", "properties": { "X": -96.898480476399996, "Y": 32.864127692499999, "Name": "COMPASS BANK", "Address": "2209 W NORTHWEST HWY", "City": "DALLAS", "Country": "USA", "County": "DALLAS", "State": "TEXAS", "ZIP": 75220.0, "Exists": "Y", "Type": "Retail Bank" }, "geometry": { "type": "Point", "coordinates": [ 2460239.758039549, 7001180.9346488118 ] } },
{ "type": "Feature", "properties": { "X": -96.794109, "Y": 32.800653, "Name": "FIRST NATIONAL BANK TEXAS", "Address": "2305 N CENTRAL EXPY", "City": "DALLAS", "Country": "USA", "County": "DALLAS", "State": "TEXAS", "ZIP": 75204.0, "Exists": "Y", "Type": "Retail Bank" }, "geometry": { "type": "Point", "coordinates": [ 2492624.2887428105, 6978476.7458053082 ] } },
{ "type": "Feature", "properties": { "X": -96.8200965, "Y": 32.788998, "Name": "ENNIS STATE BANK", "Address": "1301 N RIVERFRONT BLVD", "City": "DALLAS", "Country": "USA", "County": "DALLAS", "State": "TEXAS", "ZIP": 75207.0, "Exists": "Y", "Type": "Retail Bank" }, "geometry": { "type": "Point", "coordinates": [ 2484708.3163858056, 6974108.4825602323 ] } },
{ "type": "Feature", "properties": { "X": -96.8244706017, "Y": 32.685898908699997, "Name": "FIRST NATIONAL BANK TEXAS", "Address": "200 SHORT BLVD STE 130", "City": "DALLAS", "Country": "USA", "County": "DALLAS", "State": "TEXAS", "ZIP": 75232.0, "Exists": "Y", "Type": "Retail Bank" }, "geometry": { "type": "Point", "coordinates": [ 2483962.5386778861, 6936584.0480948091 ] } },
{ "type": "Feature", "properties": { "X": -96.838306795700007, "Y": 32.922430150899999, "Name": "FIRST NATIONAL BANK TEXAS", "Address": "12789 MIDWAY RD", "City": "DALLAS", "Country": "USA", "County": "DALLAS", "State": "TEXAS", "ZIP": 75244.0, "Exists": "Y", "Type": "Retail Bank" }, "geometry": { "type": "Point", "coordinates": [ 2478345.2631670535, 7022556.8859913051 ] } },
{ "type": "Feature", "properties": { "X": -96.688717682800004, "Y": 32.7925851575, "Name": "FIRST NATIONAL BANK TEXAS", "Address": "7401 SAMUELL BLVD", "City": "DALLAS", "Country": "USA", "County": "DALLAS", "State": "TEXAS", "ZIP": 75228.0, "Exists": "Y", "Type": "Retail Bank" }, "geometry": { "type": "Point", "coordinates": [ 2525052.4453430474, 6976084.1127953082 ] } },
{ "type": "Feature", "properties": { "X": -96.675375384199995, "Y": 32.834939189899998, "Name": "FIRST NATIONAL BANK TEXAS", "Address": "2275 GUS THOMASSON RD", "City": "DALLAS", "Country": "USA", "County": "DALLAS", "State": "TEXAS", "ZIP": 75228.0, "Exists": "Y", "Type": "Retail Bank" }, "geometry": { "type": "Point", "coordinates": [ 2528884.0922072977, 6991561.3377463073 ] } },
{ "type": "Feature", "properties": { "X": -96.8972535, "Y": 32.762664, "Name": "FIRST NATIONAL BANK TEXAS", "Address": "1521 N COCKRELL HILL RD", "City": "DALLAS", "Country": "USA", "County": "DALLAS", "State": "TEXAS", "ZIP": 75211.0, "Exists": "Y", "Type": "Retail Bank" }, "geometry": { "type": "Point", "coordinates": [ 2461147.3192165494, 6964158.7662392259 ] } },
{ "type": "Feature", "properties": { "X": -96.802676116100002, "Y": 32.798844525699998, "Name": "FIRST-CITIZENS BANK & TRUST COMPANY", "Address": "2626 HOWELL ST STE 110", "City": "DALLAS", "Country": "USA", "County": "DALLAS", "State": "TEXAS", "ZIP": 75204.0, "Exists": "Y", "Type": "Retail Bank" }, "geometry": { "type": "Point", "coordinates": [ 2490063.5222108066, 6977691.9117450565 ] } },
{ "type": "Feature", "properties": { "X": -96.8099114348, "Y": 32.795454110500003, "Name": "FROST BANK", "Address": "2950 N HARWOOD ST # 100", "City": "DALLAS", "Country": "USA", "County": "DALLAS", "State": "TEXAS", "ZIP": 75201.0, "Exists": "Y", "Type": "Retail Bank" }, "geometry": { "type": "Point", "coordinates": [ 2487844.1211377978, 6976568.9346603155 ] } },
{ "type": "Feature", "properties": { "X": -96.810069185100005, "Y": 32.863579190099998, "Name": "GUARANTY BANK & TRUST, N.A.", "Address": "5944 LUTHER LN STE 100", "City": "DALLAS", "Country": "USA", "County": "DALLAS", "State": "TEXAS", "ZIP": 75225.0, "Exists": "Y", "Type": "Retail Bank" }, "geometry": { "type": "Point", "coordinates": [ 2487355.8442272246, 7001160.4189418107 ] } },
{ "type": "Feature", "properties": { "X": -96.819696, "Y": 32.75883, "Name": "BANCORPSOUTH BANK", "Address": "305 E COLORADO BLVD", "City": "DALLAS", "Country": "USA", "County": "DALLAS", "State": "TEXAS", "ZIP": 75203.0, "Exists": "Y", "Type": "Retail Bank" }, "geometry": { "type": "Point", "coordinates": [ 2485006.910932973, 6963136.6242546439 ] } },
{ "type": "Feature", "properties": { "X": -96.773256, "Y": 32.880906, "Name": "FROST BANK", "Address": "7859 WALNUT HILL LN # 100", "City": "DALLAS", "Country": "USA", "County": "DALLAS", "State": "TEXAS", "ZIP": 75230.0, "Exists": "Y", "Type": "Retail Bank" }, "geometry": { "type": "Point", "coordinates": [ 2498550.7637664676, 7007773.983798638 ] } },
{ "type": "Feature", "properties": { "X": -96.890031, "Y": 32.890158, "Name": "HANMI BANK", "Address": "11235 HARRY HINES BLVD", "City": "DALLAS", "Country": "USA", "County": "DALLAS", "State": "TEXAS", "ZIP": 75229.0, "Exists": "Y", "Type": "Retail Bank" }, "geometry": { "type": "Point", "coordinates": [ 2462656.3640987128, 7010570.2682323158 ] } },
{ "type": "Feature", "properties": { "X": -96.807366, "Y": 32.862122509599999, "Name": "INDEPENDENT BANK", "Address": "6044 SHERRY LN", "City": "DALLAS", "Country": "USA", "County": "DALLAS", "State": "TEXAS", "ZIP": 75225.0, "Exists": "Y", "Type": "Retail Bank" }, "geometry": { "type": "Point", "coordinates": [ 2488192.7605323792, 7000676.1420232207 ] } },
{ "type": "Feature", "properties": { "X": -96.682853559700007, "Y": 32.801494107099998, "Name": "HOMEBANK TEXAS", "Address": "3637 N BUCKNER BLVD", "City": "DALLAS", "Country": "USA", "County": "DALLAS", "State": "TEXAS", "ZIP": 75228.0, "Exists": "Y", "Type": "Retail Bank" }, "geometry": { "type": "Point", "coordinates": [ 2526717.3153728843, 6979352.968790397 ] } },
{ "type": "Feature", "properties": { "X": -96.822735577100005, "Y": 32.975218489699998, "Name": "INDEPENDENT BANK", "Address": "16660 DALLAS PKWY # 1700", "City": "DALLAS", "Country": "USA", "County": "DALLAS", "State": "TEXAS", "ZIP": 75248.0, "Exists": "Y", "Type": "Retail Bank" }, "geometry": { "type": "Point", "coordinates": [ 2482815.8316537142, 7041835.3001903147 ] } },
{ "type": "Feature", "properties": { "X": -96.785055, "Y": 32.791527, "Name": "INDEPENDENT BANK", "Address": "3206 LIVE OAK ST", "City": "DALLAS", "Country": "USA", "County": "DALLAS", "State": "TEXAS", "ZIP": 75204.0, "Exists": "Y", "Type": "Retail Bank" }, "geometry": { "type": "Point", "coordinates": [ 2495460.0101054758, 6975202.4009760618 ] } },
{ "type": "Feature", "properties": { "X": -96.821028069899995, "Y": 32.966310089899999, "Name": "INDEPENDENT BANK", "Address": "16000 DALLAS PKWY", "City": "DALLAS", "Country": "USA", "County": "DALLAS", "State": "TEXAS", "ZIP": 75248.0, "Exists": "Y", "Type": "Retail Bank" }, "geometry": { "type": "Point", "coordinates": [ 2483672.0261355489, 7038649.0385182202 ] } },
{ "type": "Feature", "properties": { "X": -96.785055, "Y": 32.791527, "Name": "INDEPENDENT BANK", "Address": "3206 LIVE OAK ST", "City": "DALLAS", "Country": "USA", "County": "DALLAS", "State": "TEXAS", "ZIP": 75204.0, "Exists": "Y", "Type": "Retail Bank" }, "geometry": { "type": "Point", "coordinates": [ 2495460.0101054758, 6975202.4009760618 ] } },
{ "type": "Feature", "properties": { "X": -96.802291204300005, "Y": 32.8149392957, "Name": "INWOOD NATIONAL BANK", "Address": "3848 OAK LAWN AVE STE 198", "City": "DALLAS", "Country": "USA", "County": "DALLAS", "State": "TEXAS", "ZIP": 75219.0, "Exists": "Y", "Type": "Retail Bank" }, "geometry": { "type": "Point", "coordinates": [ 2490026.6003686339, 6983632.7650208175 ] } },
{ "type": "Feature", "properties": { "X": -96.683025295700006, "Y": 32.7392738339, "Name": "INWOOD NATIONAL BANK", "Address": "1551 S BUCKNER BLVD", "City": "DALLAS", "Country": "USA", "County": "DALLAS", "State": "TEXAS", "ZIP": 75217.0, "Exists": "Y", "Type": "Retail Bank" }, "geometry": { "type": "Point", "coordinates": [ 2527136.7928803861, 6956722.3719913065 ] } },
{ "type": "Feature", "properties": { "X": -96.821387923200007, "Y": 32.848956974499998, "Name": "INWOOD NATIONAL BANK", "Address": "7621 INWOOD RD STE 100", "City": "DALLAS", "Country": "USA", "County": "DALLAS", "State": "TEXAS", "ZIP": 75209.0, "Exists": "Y", "Type": "Retail Bank" }, "geometry": { "type": "Point", "coordinates": [ 2483822.0839063078, 6995906.8530053943 ] } },
{ "type": "Feature", "properties": { "X": -96.8171175, "Y": 32.934987, "Name": "INWOOD NATIONAL BANK", "Address": "13760 NOEL RD STE 100", "City": "DALLAS", "Country": "USA", "County": "DALLAS", "State": "TEXAS", "ZIP": 75240.0, "Exists": "Y", "Type": "Retail Bank" }, "geometry": { "type": "Point", "coordinates": [ 2484772.8598918915, 7027228.0889192224 ] } },
{ "type": "Feature", "properties": { "X": -96.796643910100002, "Y": 32.782729969199998, "Name": "JPMORGAN CHASE BANK, NATIONAL ASSOCIATION", "Address": "1700 PACIFIC AVE STE 125", "City": "DALLAS", "Country": "USA", "County": "DALLAS", "State": "TEXAS", "ZIP": 75201.0, "Exists": "Y", "Type": "Retail Bank" }, "geometry": { "type": "Point", "coordinates": [ 2491988.5058936328, 6971805.751601398 ] } },
{ "type": "Feature", "properties": { "X": -96.840184271599995, "Y": 32.696508880899998, "Name": "JPMORGAN CHASE BANK, NATIONAL ASSOCIATION", "Address": "3929 S POLK ST", "City": "DALLAS", "Country": "USA", "County": "DALLAS", "State": "TEXAS", "ZIP": 75224.0, "Exists": "Y", "Type": "Retail Bank" }, "geometry": { "type": "Point", "coordinates": [ 2479067.8043728918, 6940366.7534558922 ] } },
{ "type": "Feature", "properties": { "X": -96.747231525499998, "Y": 32.909264453299997, "Name": "JPMORGAN CHASE BANK, NATIONAL ASSOCIATION", "Address": "9049 FOREST LN", "City": "DALLAS", "Country": "USA", "County": "DALLAS", "State": "TEXAS", "ZIP": 75243.0, "Exists": "Y", "Type": "Retail Bank" }, "geometry": { "type": "Point", "coordinates": [ 2506361.885939464, 7018313.6864724755 ] } },
{ "type": "Feature", "properties": { "X": -96.703164269300004, "Y": 32.833118154399997, "Name": "JPMORGAN CHASE BANK, NATIONAL ASSOCIATION", "Address": "9409 GARLAND RD", "City": "DALLAS", "Country": "USA", "County": "DALLAS", "State": "TEXAS", "ZIP": 75218.0, "Exists": "Y", "Type": "Retail Bank" }, "geometry": { "type": "Point", "coordinates": [ 2520231.4047883004, 6990938.7500807345 ] } },
{ "type": "Feature", "properties": { "X": -96.710583990700002, "Y": 32.864922, "Name": "JPMORGAN CHASE BANK, NATIONAL ASSOCIATION", "Address": "8530 FERNDALE RD", "City": "DALLAS", "Country": "USA", "County": "DALLAS", "State": "TEXAS", "ZIP": 75238.0, "Exists": "Y", "Type": "Retail Bank" }, "geometry": { "type": "Point", "coordinates": [ 2518048.8894682974, 7002284.4606569707 ] } },
{ "type": "Feature", "properties": { "X": -96.7723166496, "Y": 32.922525321400002, "Name": "JPMORGAN CHASE BANK, NATIONAL ASSOCIATION", "Address": "12741 MERIT DR", "City": "DALLAS", "Country": "USA", "County": "DALLAS", "State": "TEXAS", "ZIP": 75251.0, "Exists": "Y", "Type": "Retail Bank" }, "geometry": { "type": "Point", "coordinates": [ 2498474.5427903086, 7022911.7415808141 ] } },
{ "type": "Feature", "properties": { "X": -96.804027033200001, "Y": 32.893956, "Name": "JPMORGAN CHASE BANK, NATIONAL ASSOCIATION", "Address": "10729 PRESTON RD", "City": "DALLAS", "Country": "USA", "County": "DALLAS", "State": "TEXAS", "ZIP": 75230.0, "Exists": "Y", "Type": "Retail Bank" }, "geometry": { "type": "Point", "coordinates": [ 2488889.8759360462, 7012364.92999731 ] } },
{ "type": "Feature", "properties": { "X": -96.7547115, "Y": 32.835897, "Name": "JPMORGAN CHASE BANK, NATIONAL ASSOCIATION", "Address": "6310 E MOCKINGBIRD LN", "City": "DALLAS", "Country": "USA", "County": "DALLAS", "State": "TEXAS", "ZIP": 75214.0, "Exists": "Y", "Type": "Retail Bank" }, "geometry": { "type": "Point", "coordinates": [ 2504514.7603686303, 6991495.7483105659 ] } },
{ "type": "Feature", "properties": { "X": -96.783956444599994, "Y": 32.922790215, "Name": "JPMORGAN CHASE BANK, NATIONAL ASSOCIATION", "Address": "12720 HILLCREST RD", "City": "DALLAS", "Country": "USA", "County": "DALLAS", "State": "TEXAS", "ZIP": 75230.0, "Exists": "Y", "Type": "Retail Bank" }, "geometry": { "type": "Point", "coordinates": [ 2495019.7534400523, 7022638.9862208068 ] } },
{ "type": "Feature", "properties": { "X": -96.768275213500004, "Y": 32.984212295900001, "Name": "JPMORGAN CHASE BANK, NATIONAL ASSOCIATION", "Address": "16831 COIT RD", "City": "DALLAS", "Country": "USA", "County": "DALLAS", "State": "TEXAS", "ZIP": 75248.0, "Exists": "Y", "Type": "Retail Bank" }, "geometry": { "type": "Point", "coordinates": [ 2499290.6986383051, 7045366.9545443058 ] } },
{ "type": "Feature", "properties": { "X": -96.821710749900006, "Y": 32.940323152300003, "Name": "JPMORGAN CHASE BANK, NATIONAL ASSOCIATION", "Address": "14114 DALLAS PKWY STE 150", "City": "DALLAS", "Country": "USA", "County": "DALLAS", "State": "TEXAS", "ZIP": 75254.0, "Exists": "Y", "Type": "Retail Bank" }, "geometry": { "type": "Point", "coordinates": [ 2483332.8614595532, 7029146.643152982 ] } },
{ "type": "Feature", "properties": { "X": -96.7705065, "Y": 32.836480482600003, "Name": "JPMORGAN CHASE BANK, NATIONAL ASSOCIATION", "Address": "5646 E MOCKINGBIRD LN", "City": "DALLAS", "Country": "USA", "County": "DALLAS", "State": "TEXAS", "ZIP": 75206.0, "Exists": "Y", "Type": "Retail Bank" }, "geometry": { "type": "Point", "coordinates": [ 2499662.1982233822, 6991539.9273560643 ] } },
{ "type": "Feature", "properties": { "X": -97.040962590099994, "Y": 32.893349310799998, "Name": "JPMORGAN CHASE BANK, NATIONAL ASSOCIATION", "Address": "8928 E RL THRTN FWY", "City": "DALLAS", "Country": "USA", "County": "DALLAS", "State": "TEXAS", "ZIP": 75228.0, "Exists": "Y", "Type": "Retail Bank" }, "geometry": { "type": "Point", "coordinates": [ 2416317.3642572165, 7011054.5005315542 ] } },
{ "type": "Feature", "properties": { "X": -96.771426272599996, "Y": 32.766518287499999, "Name": "JPMORGAN CHASE BANK, NATIONAL ASSOCIATION", "Address": "2833 MARTIN LTHR KING JR", "City": "DALLAS", "Country": "USA", "County": "DALLAS", "State": "TEXAS", "ZIP": 75215.0, "Exists": "Y", "Type": "Retail Bank" }, "geometry": { "type": "Point", "coordinates": [ 2499797.0811557174, 6966174.0013819784 ] } },
{ "type": "Feature", "properties": { "X": -96.88103089000001, "Y": 32.720287047699998, "Name": "JPMORGAN CHASE BANK, NATIONAL ASSOCIATION", "Address": "3730 W ILLINOIS AVE", "City": "DALLAS", "Country": "USA", "County": "DALLAS", "State": "TEXAS", "ZIP": 75211.0, "Exists": "Y", "Type": "Retail Bank" }, "geometry": { "type": "Point", "coordinates": [ 2466372.0640163869, 6948655.0144383907 ] } },
{ "type": "Feature", "properties": { "X": -96.7158135, "Y": 32.878188, "Name": "JPMORGAN CHASE BANK, NATIONAL ASSOCIATION", "Address": "9634 AUDELIA RD", "City": "DALLAS", "Country": "USA", "County": "DALLAS", "State": "TEXAS", "ZIP": 75238.0, "Exists": "Y", "Type": "Retail Bank" }, "geometry": { "type": "Point", "coordinates": [ 2516198.6707278043, 7007079.9445043057 ] } },
{ "type": "Feature", "properties": { "X": -96.804500989499999, "Y": 32.926233306, "Name": "JPMORGAN CHASE BANK, NATIONAL ASSOCIATION", "Address": "5935 LBJ FWY", "City": "DALLAS", "Country": "USA", "County": "DALLAS", "State": "TEXAS", "ZIP": 75240.0, "Exists": "Y", "Type": "Retail Bank" }, "geometry": { "type": "Point", "coordinates": [ 2488694.3825606406, 7024106.0620268136 ] } },
{ "type": "Feature", "properties": { "X": -96.8555475, "Y": 32.909175, "Name": "JPMORGAN CHASE BANK, NATIONAL ASSOCIATION", "Address": "11770 MARSH LN", "City": "DALLAS", "Country": "USA", "County": "DALLAS", "State": "TEXAS", "ZIP": 75229.0, "Exists": "Y", "Type": "Retail Bank" }, "geometry": { "type": "Point", "coordinates": [ 2473131.3661145568, 7017651.8994102329 ] } },
{ "type": "Feature", "properties": { "X": -96.822064887300002, "Y": 32.8511314418, "Name": "JPMORGAN CHASE BANK, NATIONAL ASSOCIATION", "Address": "5220 W LOVERS LN", "City": "DALLAS", "Country": "USA", "County": "DALLAS", "State": "TEXAS", "ZIP": 75209.0, "Exists": "Y", "Type": "Retail Bank" }, "geometry": { "type": "Point", "coordinates": [ 2483742.4892492145, 6996700.3963658065 ] } },
{ "type": "Feature", "properties": { "X": -96.8246055, "Y": 32.794389, "Name": "JPMORGAN CHASE BANK, NATIONAL ASSOCIATION", "Address": "1825 MARKET CENTER BLVD # 388", "City": "DALLAS", "Country": "USA", "County": "DALLAS", "State": "TEXAS", "ZIP": 75207.0, "Exists": "Y", "Type": "Retail Bank" }, "geometry": { "type": "Point", "coordinates": [ 2483291.6181037128, 6976047.3753359765 ] } },
{ "type": "Feature", "properties": { "X": -96.840184271599995, "Y": 32.696508880899998, "Name": "JPMORGAN CHASE BANK, NATIONAL ASSOCIATION", "Address": "3929 S POLK ST", "City": "DALLAS", "Country": "USA", "County": "DALLAS", "State": "TEXAS", "ZIP": 75224.0, "Exists": "Y", "Type": "Retail Bank" }, "geometry": { "type": "Point", "coordinates": [ 2479067.8043728918, 6940366.7534558922 ] } },
{ "type": "Feature", "properties": { "X": -96.815716576100002, "Y": 32.922148194800002, "Name": "JPMORGAN CHASE BANK, NATIONAL ASSOCIATION", "Address": "5439 HARVEST HL", "City": "DALLAS", "Country": "USA", "County": "DALLAS", "State": "TEXAS", "ZIP": 75240.0, "Exists": "Y", "Type": "Retail Bank" }, "geometry": { "type": "Point", "coordinates": [ 2485277.4779771417, 7022564.7002801448 ] } },
{ "type": "Feature", "properties": { "X": -96.816638787299993, "Y": 32.925441559399999, "Name": "JPMORGAN CHASE BANK, NATIONAL ASSOCIATION", "Address": "5400 LBJ FWY", "City": "DALLAS", "Country": "USA", "County": "DALLAS", "State": "TEXAS", "ZIP": 75240.0, "Exists": "Y", "Type": "Retail Bank" }, "geometry": { "type": "Point", "coordinates": [ 2484784.6308657229, 7023390.3242850602 ] } },
{ "type": "Feature", "properties": { "X": -96.767796968699997, "Y": 32.8614443325, "Name": "JPMORGAN CHASE BANK, NATIONAL ASSOCIATION", "Address": "6251 GREENVILLE AVE", "City": "DALLAS", "Country": "USA", "County": "DALLAS", "State": "TEXAS", "ZIP": 75206.0, "Exists": "Y", "Type": "Retail Bank" }, "geometry": { "type": "Point", "coordinates": [ 2500252.7708611339, 7000741.7376925647 ] } },
{ "type": "Feature", "properties": { "X": -96.6827840495, "Y": 32.744061, "Name": "JPMORGAN CHASE BANK, NATIONAL ASSOCIATION", "Address": "1838 S BUCKNER BLVD", "City": "DALLAS", "Country": "USA", "County": "DALLAS", "State": "TEXAS", "ZIP": 75217.0, "Exists": "Y", "Type": "Retail Bank" }, "geometry": { "type": "Point", "coordinates": [ 2527369.1342792213, 6958468.2372659743 ] } },
{ "type": "Feature", "properties": { "X": -96.6466035, "Y": 32.734187462999998, "Name": "JPMORGAN CHASE BANK, NATIONAL ASSOCIATION", "Address": "10321 LAKE JUNE RD", "City": "DALLAS", "Country": "USA", "County": "DALLAS", "State": "TEXAS", "ZIP": 75217.0, "Exists": "Y", "Type": "Retail Bank" }, "geometry": { "type": "Point", "coordinates": [ 2538364.0214101374, 6955195.7123149782 ] } },
{ "type": "Feature", "properties": { "X": -96.7933981706, "Y": 32.6943508365, "Name": "JPMORGAN CHASE BANK, NATIONAL ASSOCIATION", "Address": "4435 S LANCASTER RD", "City": "DALLAS", "Country": "USA", "County": "DALLAS", "State": "TEXAS", "ZIP": 75216.0, "Exists": "Y", "Type": "Retail Bank" }, "geometry": { "type": "Point", "coordinates": [ 2493378.7134150565, 6939779.2503658086 ] } },
{ "type": "Feature", "properties": { "X": -96.879577777700007, "Y": 32.881079897399999, "Name": "JPMORGAN CHASE BANK, NATIONAL ASSOCIATION", "Address": "2945 WALNUT HILL LN", "City": "DALLAS", "Country": "USA", "County": "DALLAS", "State": "TEXAS", "ZIP": 75229.0, "Exists": "Y", "Type": "Retail Bank" }, "geometry": { "type": "Point", "coordinates": [ 2465913.3956423849, 7007548.7230943143 ] } },
{ "type": "Feature", "properties": { "X": -96.849333, "Y": 32.809185, "Name": "JPMORGAN CHASE BANK, NATIONAL ASSOCIATION", "Address": "2777 N STEMMONS FWY", "City": "DALLAS", "Country": "USA", "County": "DALLAS", "State": "TEXAS", "ZIP": 75207.0, "Exists": "Y", "Type": "Retail Bank" }, "geometry": { "type": "Point", "coordinates": [ 2475609.7909477204, 6981309.2857438922 ] } },
{ "type": "Feature", "properties": { "X": -96.804027033200001, "Y": 32.893956, "Name": "JPMORGAN CHASE BANK, NATIONAL ASSOCIATION", "Address": "10729 PRESTON RD", "City": "DALLAS", "Country": "USA", "County": "DALLAS", "State": "TEXAS", "ZIP": 75230.0, "Exists": "Y", "Type": "Retail Bank" }, "geometry": { "type": "Point", "coordinates": [ 2488889.8759360462, 7012364.92999731 ] } },
{ "type": "Feature", "properties": { "X": -96.8363865, "Y": 32.768703, "Name": "JPMORGAN CHASE BANK, NATIONAL ASSOCIATION", "Address": "1881 SYLVAN AVE STE 101", "City": "DALLAS", "Country": "USA", "County": "DALLAS", "State": "TEXAS", "ZIP": 75208.0, "Exists": "Y", "Type": "Retail Bank" }, "geometry": { "type": "Point", "coordinates": [ 2479820.0134983808, 6966646.3527994752 ] } },
{ "type": "Feature", "properties": { "X": -96.796656, "Y": 32.78799, "Name": "JPMORGAN CHASE BANK, NATIONAL ASSOCIATION", "Address": "2200 ROSS AVE STE 2200", "City": "DALLAS", "Country": "USA", "County": "DALLAS", "State": "TEXAS", "ZIP": 75201.0, "Exists": "Y", "Type": "Retail Bank" }, "geometry": { "type": "Point", "coordinates": [ 2491916.5037410557, 6973857.799990729 ] } },
{ "type": "Feature", "properties": { "X": -96.8633955, "Y": 32.758236, "Name": "JPMORGAN CHASE BANK, NATIONAL ASSOCIATION", "Address": "2530 FORT WORTH AVE", "City": "DALLAS", "Country": "USA", "County": "DALLAS", "State": "TEXAS", "ZIP": 75211.0, "Exists": "Y", "Type": "Retail Bank" }, "geometry": { "type": "Point", "coordinates": [ 2471578.6982881427, 6962708.4932211488 ] } },
{ "type": "Feature", "properties": { "X": -96.7547115, "Y": 32.835897, "Name": "JPMORGAN CHASE BANK, NATIONAL ASSOCIATION", "Address": "6310 E MOCKINGBIRD LN", "City": "DALLAS", "Country": "USA", "County": "DALLAS", "State": "TEXAS", "ZIP": 75214.0, "Exists": "Y", "Type": "Retail Bank" }, "geometry": { "type": "Point", "coordinates": [ 2504514.7603686303, 6991495.7483105659 ] } },
{ "type": "Feature", "properties": { "X": -96.8026455, "Y": 32.819445, "Name": "JPMORGAN CHASE BANK, NATIONAL ASSOCIATION", "Address": "4236 WYCLIFF AVE", "City": "DALLAS", "Country": "USA", "County": "DALLAS", "State": "TEXAS", "ZIP": 75219.0, "Exists": "Y", "Type": "Retail Bank" }, "geometry": { "type": "Point", "coordinates": [ 2489891.2892875522, 6985269.990092814 ] } },
{ "type": "Feature", "properties": { "X": -96.814057857999998, "Y": 32.819321784899998, "Name": "JPMORGAN CHASE BANK, NATIONAL ASSOCIATION", "Address": "4512 LEMMON AVE", "City": "DALLAS", "Country": "USA", "County": "DALLAS", "State": "TEXAS", "ZIP": 75219.0, "Exists": "Y", "Type": "Retail Bank" }, "geometry": { "type": "Point", "coordinates": [ 2486457.1160378009, 6985267.076712817 ] } },
{ "type": "Feature", "properties": { "X": -96.675327, "Y": 32.834895503799999, "Name": "JPMORGAN CHASE BANK, NATIONAL ASSOCIATION", "Address": "2325 GUS THOMASSON RD", "City": "DALLAS", "Country": "USA", "County": "DALLAS", "State": "TEXAS", "ZIP": 75228.0, "Exists": "Y", "Type": "Retail Bank" }, "geometry": { "type": "Point", "coordinates": [ 2528897.0498585552, 6991671.015676558 ] } },
{ "type": "Feature", "properties": { "X": -96.8588595, "Y": 32.720224486200003, "Name": "LEGACYTEXAS BANK", "Address": "2498 W ILLINOIS AVE", "City": "DALLAS", "Country": "USA", "County": "DALLAS", "State": "TEXAS", "ZIP": 75233.0, "Exists": "Y", "Type": "Retail Bank" }, "geometry": { "type": "Point", "coordinates": [ 2473190.3866658062, 6948809.937684983 ] } },
{ "type": "Feature", "properties": { "X": -96.796548, "Y": 32.781609, "Name": "COMERICA BANK", "Address": "1717 MAIN ST", "City": "DALLAS", "Country": "USA", "County": "DALLAS", "State": "TEXAS", "ZIP": 75201.0, "Exists": "Y", "Type": "Retail Bank" }, "geometry": { "type": "Point", "coordinates": [ 2491987.3280744702, 6971537.2098156512 ] } },
{ "type": "Feature", "properties": { "X": -96.717999528999997, "Y": 32.877225, "Name": "LEGACYTEXAS BANK", "Address": "9625 AUDELIA RD", "City": "DALLAS", "Country": "USA", "County": "DALLAS", "State": "TEXAS", "ZIP": 75238.0, "Exists": "Y", "Type": "Retail Bank" }, "geometry": { "type": "Point", "coordinates": [ 2515460.1220080554, 7006717.0121593177 ] } },
{ "type": "Feature", "properties": { "X": -96.80211, "Y": 32.893812, "Name": "LEGACYTEXAS BANK", "Address": "10720 PRESTON RD", "City": "DALLAS", "Country": "USA", "County": "DALLAS", "State": "TEXAS", "ZIP": 75230.0, "Exists": "Y", "Type": "Retail Bank" }, "geometry": { "type": "Point", "coordinates": [ 2489618.5185076296, 7012324.3040943146 ] } },
{ "type": "Feature", "properties": { "X": -96.830136, "Y": 32.990607, "Name": "LEGACYTEXAS BANK", "Address": "17617 DALLAS PKWY", "City": "DALLAS", "Country": "USA", "County": "COLLIN", "State": "TEXAS", "ZIP": 75287.0, "Exists": "Y", "Type": "Retail Bank" }, "geometry": { "type": "Point", "coordinates": [ 2480457.7838763893, 7047396.9652480632 ] } },
{ "type": "Feature", "properties": { "X": -96.808560948199997, "Y": 32.860098065499997, "Name": "JPMORGAN CHASE BANK, NATIONAL ASSOCIATION", "Address": "8022 DOUGLAS", "City": "DALLAS", "Country": "USA", "County": "DALLAS", "State": "TEXAS", "ZIP": 75225.0, "Exists": "Y", "Type": "Retail Bank" }, "geometry": { "type": "Point", "coordinates": [ 2487836.2386076301, 7000028.5849193931 ] } },
{ "type": "Feature", "properties": { "X": -96.805153078499998, "Y": 32.7933889384, "Name": "LEGACYTEXAS BANK", "Address": "2101 CEDAR SPRINGS RD", "City": "DALLAS", "Country": "USA", "County": "DALLAS", "State": "TEXAS", "ZIP": 75201.0, "Exists": "Y", "Type": "Retail Bank" }, "geometry": { "type": "Point", "coordinates": [ 2489032.5603619665, 6975936.4208334833 ] } },
{ "type": "Feature", "properties": { "X": -96.775344, "Y": 32.838768, "Name": "MARQUETTE BUSINESS CREDIT INC", "Address": "5910 N CNTRL EXPY # 150", "City": "DALLAS", "Country": "USA", "County": "DALLAS", "State": "TEXAS", "ZIP": 75206.0, "Exists": "Y", "Type": "Retail Bank" }, "geometry": { "type": "Point", "coordinates": [ 2498161.5414478034, 6992435.4432815611 ] } },
{ "type": "Feature", "properties": { "X": -96.7968125644, "Y": 33.000423075500002, "Name": "MIDSOUTH BANCORP, INC.", "Address": "18333 PRESTON RD", "City": "DALLAS", "Country": "USA", "County": "COLLIN", "State": "TEXAS", "ZIP": 75252.0, "Exists": "Y", "Type": "Retail Bank" }, "geometry": { "type": "Point", "coordinates": [ 2490490.0144680589, 7051192.9720917344 ] } },
{ "type": "Feature", "properties": { "X": -96.800166, "Y": 32.784435, "Name": "MUFG UNION BANK, NATIONAL ASSOCIATION", "Address": "500 N AKARD ST STE 4200", "City": "DALLAS", "Country": "USA", "County": "DALLAS", "State": "TEXAS", "ZIP": 75201.0, "Exists": "Y", "Type": "Retail Bank" }, "geometry": { "type": "Point", "coordinates": [ 2490858.9494257271, 6972547.1759715676 ] } },
{ "type": "Feature", "properties": { "X": -96.788339771300002, "Y": 32.816780843700002, "Name": "MERIDIAN BANK TEXAS", "Address": "4228 N CENTRAL EXPY", "City": "DALLAS", "Country": "USA", "County": "DALLAS", "State": "TEXAS", "ZIP": 75206.0, "Exists": "Y", "Type": "Retail Bank" }, "geometry": { "type": "Point", "coordinates": [ 2494373.5867533833, 6984330.8522073179 ] } },
{ "type": "Feature", "properties": { "X": -96.807906, "Y": 32.799096, "Name": "NBH BANK", "Address": "3102 MAPLE AVE", "City": "DALLAS", "Country": "USA", "County": "DALLAS", "State": "TEXAS", "ZIP": 75201.0, "Exists": "Y", "Type": "Retail Bank" }, "geometry": { "type": "Point", "coordinates": [ 2488394.7584879696, 6977841.819909811 ] } },
{ "type": "Feature", "properties": { "X": -96.805676876600003, "Y": 32.863667212000003, "Name": "NEXBANK SSB", "Address": "6121 LUTHER LN", "City": "DALLAS", "Country": "USA", "County": "DALLAS", "State": "TEXAS", "ZIP": 75225.0, "Exists": "Y", "Type": "Retail Bank" }, "geometry": { "type": "Point", "coordinates": [ 2488700.7362224758, 7001341.1646433175 ] } },
{ "type": "Feature", "properties": { "X": -96.807663, "Y": 32.862861, "Name": "ORIGIN BANK", "Address": "8222 DOUGLAS AVE STE 100", "City": "DALLAS", "Country": "USA", "County": "DALLAS", "State": "TEXAS", "ZIP": 75225.0, "Exists": "Y", "Type": "Retail Bank" }, "geometry": { "type": "Point", "coordinates": [ 2488095.7259495556, 7001038.0684647262 ] } },
{ "type": "Feature", "properties": { "X": -96.7763025, "Y": 32.837436, "Name": "PARK CITIES BANK", "Address": "5307 E MOCKINGBIRD LN # 350", "City": "DALLAS", "Country": "USA", "County": "DALLAS", "State": "TEXAS", "ZIP": 75206.0, "Exists": "Y", "Type": "Retail Bank" }, "geometry": { "type": "Point", "coordinates": [ 2497875.1535691321, 6991946.0879610628 ] } },
{ "type": "Feature", "properties": { "X": -96.820569, "Y": 32.968488491800002, "Name": "NORTH DALLAS BANK & TRUST CO INC", "Address": "5150 KELLER SPRINGS RD # 100", "City": "DALLAS", "Country": "USA", "County": "DALLAS", "State": "TEXAS", "ZIP": 75248.0, "Exists": "Y", "Type": "Retail Bank" }, "geometry": { "type": "Point", "coordinates": [ 2483521.4368698001, 7039262.2777773142 ] } },
{ "type": "Feature", "properties": { "X": -96.83180342, "Y": 32.721798542999998, "Name": "JPMORGAN CHASE BANK, NATIONAL ASSOCIATION", "Address": "400 WYNNEWOOD VLG SHP CTR", "City": "DALLAS", "Country": "USA", "County": "DALLAS", "State": "TEXAS", "ZIP": 75224.0, "Exists": "Y", "Type": "Retail Bank" }, "geometry": { "type": "Point", "coordinates": [ 2481499.4770029634, 6949606.8609598875 ] } },
{ "type": "Feature", "properties": { "X": -96.808197517500005, "Y": 32.789632375700002, "Name": "PLAINSCAPITAL BANK", "Address": "2900 OLIVE ST", "City": "DALLAS", "Country": "USA", "County": "DALLAS", "State": "TEXAS", "ZIP": 75219.0, "Exists": "Y", "Type": "Retail Bank" }, "geometry": { "type": "Point", "coordinates": [ 2488360.6407740563, 6974397.9166926444 ] } },
{ "type": "Feature", "properties": { "X": -96.7687189528, "Y": 32.9784083005, "Name": "PAVILLION BANK", "Address": "7551 CAMPBELL RD", "City": "DALLAS", "Country": "USA", "County": "DALLAS", "State": "TEXAS", "ZIP": 75248.0, "Exists": "Y", "Type": "Retail Bank" }, "geometry": { "type": "Point", "coordinates": [ 2499358.7933183908, 7043264.3406393081 ] } },
{ "type": "Feature", "properties": { "X": -96.808197517500005, "Y": 32.789632375700002, "Name": "PLAINSCAPITAL BANK", "Address": "2900 OLIVE ST", "City": "DALLAS", "Country": "USA", "County": "DALLAS", "State": "TEXAS", "ZIP": 75215.0, "Exists": "Y", "Type": "Retail Bank" }, "geometry": { "type": "Point", "coordinates": [ 2488360.6407740563, 6974397.9166926444 ] } },
{ "type": "Feature", "properties": { "X": -96.808573966500006, "Y": 32.862429, "Name": "PLAINSCAPITAL BANK", "Address": "8200 DOUGLAS AVE STE 100", "City": "DALLAS", "Country": "USA", "County": "DALLAS", "State": "TEXAS", "ZIP": 75225.0, "Exists": "Y", "Type": "Retail Bank" }, "geometry": { "type": "Point", "coordinates": [ 2487900.7017333061, 7000877.7423418164 ] } },
{ "type": "Feature", "properties": { "X": -96.802407, "Y": 32.814207, "Name": "PROSPERITY BANK", "Address": "3802 OAK LAWN AVE", "City": "DALLAS", "Country": "USA", "County": "DALLAS", "State": "TEXAS", "ZIP": 75219.0, "Exists": "Y", "Type": "Retail Bank" }, "geometry": { "type": "Point", "coordinates": [ 2489995.3366516382, 6983365.8121426404 ] } },
{ "type": "Feature", "properties": { "X": -96.800166, "Y": 32.784435, "Name": "PNC BANK, NATIONAL ASSOCIATION", "Address": "500 N AKARD ST STE 1920", "City": "DALLAS", "Country": "USA", "County": "DALLAS", "State": "TEXAS", "ZIP": 75201.0, "Exists": "Y", "Type": "Retail Bank" }, "geometry": { "type": "Point", "coordinates": [ 2490858.9494257271, 6972547.1759715676 ] } },
{ "type": "Feature", "properties": { "X": -96.797412, "Y": 32.783148, "Name": "PLAINSCAPITAL BANK", "Address": "325 N SAINT PAUL ST # 175", "City": "DALLAS", "Country": "USA", "County": "DALLAS", "State": "TEXAS", "ZIP": 75201.0, "Exists": "Y", "Type": "Retail Bank" }, "geometry": { "type": "Point", "coordinates": [ 2491712.7633348852, 6972092.7264211476 ] } },
{ "type": "Feature", "properties": { "X": -96.806350618799996, "Y": 32.909600417199997, "Name": "PROSPERITY BANK", "Address": "5919 FOREST LN", "City": "DALLAS", "Country": "USA", "County": "DALLAS", "State": "TEXAS", "ZIP": 75230.0, "Exists": "Y", "Type": "Retail Bank" }, "geometry": { "type": "Point", "coordinates": [ 2488224.0190000534, 7018192.9773963094 ] } },
{ "type": "Feature", "properties": { "X": -96.83046, "Y": 32.7051744794, "Name": "PROSPERITY BANK", "Address": "333 W KIEST BLVD", "City": "DALLAS", "Country": "USA", "County": "DALLAS", "State": "TEXAS", "ZIP": 75224.0, "Exists": "Y", "Type": "Retail Bank" }, "geometry": { "type": "Point", "coordinates": [ 2482005.8280243874, 6943745.473404482 ] } },
{ "type": "Feature", "properties": { "X": -96.8004703955, "Y": 32.8134492143, "Name": "PROSPERITY BANK", "Address": "3811 TURTLE CREEK BLVD # 150", "City": "DALLAS", "Country": "USA", "County": "DALLAS", "State": "TEXAS", "ZIP": 75219.0, "Exists": "Y", "Type": "Retail Bank" }, "geometry": { "type": "Point", "coordinates": [ 2490532.6065744758, 6983315.5550253093 ] } },
{ "type": "Feature", "properties": { "X": -96.877687897499996, "Y": 32.662486013399999, "Name": "PROSPERITY BANK", "Address": "3515 W CAMP WISDOM RD", "City": "DALLAS", "Country": "USA", "County": "DALLAS", "State": "TEXAS", "ZIP": 75237.0, "Exists": "Y", "Type": "Retail Bank" }, "geometry": { "type": "Point", "coordinates": [ 2467693.8769895583, 6927950.4255983084 ] } },
{ "type": "Feature", "properties": { "X": -96.874902, "Y": 32.722038, "Name": "PROSPERITY BANK", "Address": "2415 S WESTMORELAND RD", "City": "DALLAS", "Country": "USA", "County": "DALLAS", "State": "TEXAS", "ZIP": 75211.0, "Exists": "Y", "Type": "Retail Bank" }, "geometry": { "type": "Point", "coordinates": [ 2468245.7003609687, 6949486.2253744006 ] } },
{ "type": "Feature", "properties": { "X": -96.738727585099994, "Y": 32.912944276600001, "Name": "PROSPERITY BANK", "Address": "9330 LBJ FWY STE 150", "City": "DALLAS", "Country": "USA", "County": "DALLAS", "State": "TEXAS", "ZIP": 75243.0, "Exists": "Y", "Type": "Retail Bank" }, "geometry": { "type": "Point", "coordinates": [ 2508798.9266690463, 7019343.4134156406 ] } },
{ "type": "Feature", "properties": { "X": -96.803556855799997, "Y": 32.986690446899999, "Name": "PROSPERITY BANK", "Address": "17177 PRESTON RD STE 150", "City": "DALLAS", "Country": "USA", "County": "DALLAS", "State": "TEXAS", "ZIP": 75248.0, "Exists": "Y", "Type": "Retail Bank" }, "geometry": { "type": "Point", "coordinates": [ 2488350.3747184724, 7046216.7786320597 ] } },
{ "type": "Feature", "properties": { "X": -96.767415, "Y": 32.920758, "Name": "BANCORPSOUTH BANK", "Address": "12655 N CENTRAL EXPY # 100", "City": "DALLAS", "Country": "USA", "County": "DALLAS", "State": "TEXAS", "ZIP": 75243.0, "Exists": "Y", "Type": "Retail Bank" }, "geometry": { "type": "Point", "coordinates": [ 2500104.4748978913, 7022300.0131454766 ] } },
{ "type": "Feature", "properties": { "X": -96.800166, "Y": 32.784435, "Name": "PROVIDENCE BANK OF TEXAS, SSB", "Address": "500 N AKARD ST STE 1920", "City": "DALLAS", "Country": "USA", "County": "DALLAS", "State": "TEXAS", "ZIP": 75201.0, "Exists": "Y", "Type": "Retail Bank" }, "geometry": { "type": "Point", "coordinates": [ 2490858.9494257271, 6972547.1759715676 ] } },
{ "type": "Feature", "properties": { "X": -96.821973788500003, "Y": 32.974405415500001, "Name": "REGIONS BANK", "Address": "16600 DALLAS PKWY STE 100", "City": "DALLAS", "Country": "USA", "County": "DALLAS", "State": "TEXAS", "ZIP": 75248.0, "Exists": "Y", "Type": "Retail Bank" }, "geometry": { "type": "Point", "coordinates": [ 2483160.1534716338, 7041660.1479815543 ] } },
{ "type": "Feature", "properties": { "X": -96.806016, "Y": 32.804208, "Name": "SIMMONS BANK", "Address": "2911 TURTLE CREEK BLVD", "City": "DALLAS", "Country": "USA", "County": "DALLAS", "State": "TEXAS", "ZIP": 75219.0, "Exists": "Y", "Type": "Retail Bank" }, "geometry": { "type": "Point", "coordinates": [ 2488945.4191320539, 6979710.7049515545 ] } },
{ "type": "Feature", "properties": { "X": -96.788339771300002, "Y": 32.816780843700002, "Name": "STATE BANK & TRUST COMPANY DALLAS", "Address": "4228 N CENTRAL EXPY # 30", "City": "DALLAS", "Country": "USA", "County": "DALLAS", "State": "TEXAS", "ZIP": 75206.0, "Exists": "Y", "Type": "Retail Bank" }, "geometry": { "type": "Point", "coordinates": [ 2494373.5867533833, 6984330.8522073179 ] } },
{ "type": "Feature", "properties": { "X": -96.873175984100001, "Y": 32.912038026899999, "Name": "STATE BANK OF TEXAS", "Address": "11950 WEBB CHAPEL RD", "City": "DALLAS", "Country": "USA", "County": "DALLAS", "State": "TEXAS", "ZIP": 75234.0, "Exists": "Y", "Type": "Retail Bank" }, "geometry": { "type": "Point", "coordinates": [ 2467864.1853759736, 7018604.6691582203 ] } },
{ "type": "Feature", "properties": { "X": -96.822561525500006, "Y": 32.948639469600003, "Name": "STERLING BANK", "Address": "5006 VERDE VALLEY LN", "City": "DALLAS", "Country": "USA", "County": "DALLAS", "State": "TEXAS", "ZIP": 75254.0, "Exists": "Y", "Type": "Retail Bank" }, "geometry": { "type": "Point", "coordinates": [ 2483023.5100441426, 7031981.1821033061 ] } },
{ "type": "Feature", "properties": { "X": -96.867320010200004, "Y": 32.820103187000001, "Name": "STERLING BANK", "Address": "1250 W MOCKINGBIRD LN # 100", "City": "DALLAS", "Country": "USA", "County": "DALLAS", "State": "TEXAS", "ZIP": 75247.0, "Exists": "Y", "Type": "Retail Bank" }, "geometry": { "type": "Point", "coordinates": [ 2470109.4216991365, 6985048.1014289707 ] } },
{ "type": "Feature", "properties": { "X": -96.771591, "Y": 32.846031, "Name": "STERLING BANK", "Address": "4849 GREENVILLE AVE # 100", "City": "DALLAS", "Country": "USA", "County": "DALLAS", "State": "TEXAS", "ZIP": 75206.0, "Exists": "Y", "Type": "Retail Bank" }, "geometry": { "type": "Point", "coordinates": [ 2499270.5503846407, 6995096.3500332236 ] } },
{ "type": "Feature", "properties": { "X": -96.812451, "Y": 32.925475533099998, "Name": "STERLING BANK", "Address": "5580 LBJ FWY STE 100", "City": "DALLAS", "Country": "USA", "County": "DALLAS", "State": "TEXAS", "ZIP": 75240.0, "Exists": "Y", "Type": "Retail Bank" }, "geometry": { "type": "Point", "coordinates": [ 2486262.5363744646, 7023626.8887725621 ] } },
{ "type": "Feature", "properties": { "X": -96.8208885, "Y": 32.973885, "Name": "STOCKMANS BANK", "Address": "16400 DALLAS PKWY", "City": "DALLAS", "Country": "USA", "County": "DALLAS", "State": "TEXAS", "ZIP": 75248.0, "Exists": "Y", "Type": "Retail Bank" }, "geometry": { "type": "Point", "coordinates": [ 2483389.9217128903, 7041359.2709586471 ] } },
{ "type": "Feature", "properties": { "X": -96.80562, "Y": 32.792085, "Name": "STERLING BANK", "Address": "2525 MCKINNON ST STE 100", "City": "DALLAS", "Country": "USA", "County": "DALLAS", "State": "TEXAS", "ZIP": 75201.0, "Exists": "Y", "Type": "Retail Bank" }, "geometry": { "type": "Point", "coordinates": [ 2489138.2028672248, 6975302.8400796503 ] } },
{ "type": "Feature", "properties": { "X": -96.811787319100006, "Y": 32.806320640599999, "Name": "THE AMERICAN NATIONAL BANK OF TEXAS", "Address": "2703 OAK LAWN AVE", "City": "DALLAS", "Country": "USA", "County": "DALLAS", "State": "TEXAS", "ZIP": 75219.0, "Exists": "Y", "Type": "Retail Bank" }, "geometry": { "type": "Point", "coordinates": [ 2487091.5343883932, 6980545.3732297271 ] } },
{ "type": "Feature", "properties": { "X": -96.775965, "Y": 32.864994, "Name": "THAYER CORPORATION", "Address": "7600 W NORTHWEST HWY", "City": "DALLAS", "Country": "USA", "County": "DALLAS", "State": "TEXAS", "ZIP": 75225.0, "Exists": "Y", "Type": "Retail Bank" }, "geometry": { "type": "Point", "coordinates": [ 2497814.2701607198, 7001972.2093129754 ] } },
{ "type": "Feature", "properties": { "X": -96.804250037599999, "Y": 32.7887554506, "Name": "REGIONS BANK", "Address": "1717 MCKINNEY", "City": "DALLAS", "Country": "USA", "County": "DALLAS", "State": "TEXAS", "ZIP": 75201.0, "Exists": "Y", "Type": "Retail Bank" }, "geometry": { "type": "Point", "coordinates": [ 2489578.6691778898, 6974098.4861891419 ] } },
{ "type": "Feature", "properties": { "X": -96.8053815, "Y": 32.8621205293, "Name": "THE BANK OF NEW YORK MELLON CORPORATION", "Address": "6150 SHERRY LN", "City": "DALLAS", "Country": "USA", "County": "DALLAS", "State": "TEXAS", "ZIP": 75225.0, "Exists": "Y", "Type": "Retail Bank" }, "geometry": { "type": "Point", "coordinates": [ 2488801.9571486413, 7000689.2384537309 ] } },
{ "type": "Feature", "properties": { "X": -96.762872197199997, "Y": 32.883447369099997, "Name": "THAYER CORPORATION", "Address": "8255 WALNUT HILL LN", "City": "DALLAS", "Country": "USA", "County": "DALLAS", "State": "TEXAS", "ZIP": 75231.0, "Exists": "Y", "Type": "Retail Bank" }, "geometry": { "type": "Point", "coordinates": [ 2501722.6406248063, 7008750.9749548882 ] } },
{ "type": "Feature", "properties": { "X": -96.8090355, "Y": 32.862735, "Name": "THIRD COAST BANK SSB", "Address": "8235 DOUGLAS AVE", "City": "DALLAS", "Country": "USA", "County": "DALLAS", "State": "TEXAS", "ZIP": 75225.0, "Exists": "Y", "Type": "Retail Bank" }, "geometry": { "type": "Point", "coordinates": [ 2487675.1053997129, 7000985.4491473883 ] } },
{ "type": "Feature", "properties": { "X": -96.8809005, "Y": 32.775165, "Name": "THE BANK OF NEW YORK MELLON CORPORATION", "Address": "2322 FRENCH SETTLEMENT RD", "City": "DALLAS", "Country": "USA", "County": "DALLAS", "State": "TEXAS", "ZIP": 75212.0, "Exists": "Y", "Type": "Retail Bank" }, "geometry": { "type": "Point", "coordinates": [ 2466103.3434252143, 6968783.2123708874 ] } },
{ "type": "Feature", "properties": { "X": -96.803645485499999, "Y": 32.926932, "Name": "UNITED TEXAS BANK", "Address": "13101 PRESTON RD STE 100", "City": "DALLAS", "Country": "USA", "County": "DALLAS", "State": "TEXAS", "ZIP": 75240.0, "Exists": "Y", "Type": "Retail Bank" }, "geometry": { "type": "Point", "coordinates": [ 2488766.664568305, 7024361.4532483071 ] } },
{ "type": "Feature", "properties": { "X": -96.798337050100002, "Y": 32.996767886999997, "Name": "VERITEX COMMUNITY BANK", "Address": "17950 PRESTON RD STE 500", "City": "DALLAS", "Country": "USA", "County": "COLLIN", "State": "TEXAS", "ZIP": 75252.0, "Exists": "Y", "Type": "Retail Bank" }, "geometry": { "type": "Point", "coordinates": [ 2490550.6104754657, 7049582.7801021487 ] } },
{ "type": "Feature", "properties": { "X": -96.753267, "Y": 32.815161, "Name": "VERITEX COMMUNITY BANK", "Address": "2101 ABRAMS RD", "City": "DALLAS", "Country": "USA", "County": "DALLAS", "State": "TEXAS", "ZIP": 75214.0, "Exists": "Y", "Type": "Retail Bank" }, "geometry": { "type": "Point", "coordinates": [ 2505083.7802279741, 6983960.2981583923 ] } },
{ "type": "Feature", "properties": { "X": -96.8045535, "Y": 32.892993, "Name": "VERITEX COMMUNITY BANK", "Address": "10703 PRESTON RD", "City": "DALLAS", "Country": "USA", "County": "DALLAS", "State": "TEXAS", "ZIP": 75230.0, "Exists": "Y", "Type": "Retail Bank" }, "geometry": { "type": "Point", "coordinates": [ 2488873.4333836436, 7012014.2722340673 ] } },
{ "type": "Feature", "properties": { "X": -96.8058855, "Y": 32.86287, "Name": "VERITEX COMMUNITY BANK", "Address": "8214 WESTCHESTER DR # 400", "City": "DALLAS", "Country": "USA", "County": "DALLAS", "State": "TEXAS", "ZIP": 75225.0, "Exists": "Y", "Type": "Retail Bank" }, "geometry": { "type": "Point", "coordinates": [ 2488641.3665905595, 7001050.1383224726 ] } },
{ "type": "Feature", "properties": { "X": -96.804072, "Y": 32.950188, "Name": "VERITEX COMMUNITY BANK", "Address": "14885 PRESTON RD", "City": "DALLAS", "Country": "USA", "County": "DALLAS", "State": "TEXAS", "ZIP": 75254.0, "Exists": "Y", "Type": "Retail Bank" }, "geometry": { "type": "Point", "coordinates": [ 2488685.3051509708, 7032822.0019439757 ] } },
{ "type": "Feature", "properties": { "X": -96.774579, "Y": 32.841522, "Name": "VERITEX COMMUNITY BANK", "Address": "6116 N CENTRAL EXPY # 100", "City": "DALLAS", "Country": "USA", "County": "DALLAS", "State": "TEXAS", "ZIP": 75206.0, "Exists": "Y", "Type": "Retail Bank" }, "geometry": { "type": "Point", "coordinates": [ 2498380.0045935512, 6993441.0869395584 ] } },
{ "type": "Feature", "properties": { "X": -96.888428488100004, "Y": 32.887884270599997, "Name": "WALLIS STATE BANK", "Address": "11135 HARRY HINES BLVD", "City": "DALLAS", "Country": "USA", "County": "DALLAS", "State": "TEXAS", "ZIP": 75229.0, "Exists": "Y", "Type": "Retail Bank" }, "geometry": { "type": "Point", "coordinates": [ 2463011.4027587175, 7009668.6325683892 ] } },
{ "type": "Feature", "properties": { "X": -96.739842643299994, "Y": 32.894786936199999, "Name": "WELLS FARGO BANK, NATIONAL ASSOCIATION", "Address": "8448 ABRAMS RD", "City": "DALLAS", "Country": "USA", "County": "DALLAS", "State": "TEXAS", "ZIP": 75243.0, "Exists": "Y", "Type": "Retail Bank" }, "geometry": { "type": "Point", "coordinates": [ 2508721.9045133889, 7012993.4825459719 ] } },
{ "type": "Feature", "properties": { "X": -96.81012, "Y": 32.865111, "Name": "VISTA BANK", "Address": "5840 W NORTHWEST HWY", "City": "DALLAS", "Country": "USA", "County": "DALLAS", "State": "TEXAS", "ZIP": 75225.0, "Exists": "Y", "Type": "Retail Bank" }, "geometry": { "type": "Point", "coordinates": [ 2487328.2586524636, 7001844.3841093183 ] } },
{ "type": "Feature", "properties": { "X": -96.803514, "Y": 32.909031, "Name": "WELLS FARGO BANK, NATIONAL ASSOCIATION", "Address": "11730 PRESTON RD", "City": "DALLAS", "Country": "USA", "County": "DALLAS", "State": "TEXAS", "ZIP": 75230.0, "Exists": "Y", "Type": "Retail Bank" }, "geometry": { "type": "Point", "coordinates": [ 2489098.2321466357, 7017853.4163956493 ] } },
{ "type": "Feature", "properties": { "X": -96.858414, "Y": 32.742585, "Name": "WELLS FARGO BANK, NATIONAL ASSOCIATION", "Address": "315 S HAMPTON RD", "City": "DALLAS", "Country": "USA", "County": "DALLAS", "State": "TEXAS", "ZIP": 75208.0, "Exists": "Y", "Type": "Retail Bank" }, "geometry": { "type": "Point", "coordinates": [ 2473198.8082368821, 6957039.1978012323 ] } },
{ "type": "Feature", "properties": { "X": -96.857398820699999, "Y": 32.676851481, "Name": "WELLS FARGO BANK, NATIONAL ASSOCIATION", "Address": "5801 MARVIN D LOVE FWY # 100", "City": "DALLAS", "Country": "USA", "County": "DALLAS", "State": "TEXAS", "ZIP": 75237.0, "Exists": "Y", "Type": "Retail Bank" }, "geometry": { "type": "Point", "coordinates": [ 2473789.6413727999, 6933232.1246805638 ] } },
{ "type": "Feature", "properties": { "X": -96.771321, "Y": 32.694327, "Name": "WELLS FARGO BANK, NATIONAL ASSOCIATION", "Address": "2906 E LEDBETTER DR", "City": "DALLAS", "Country": "USA", "County": "DALLAS", "State": "TEXAS", "ZIP": 75216.0, "Exists": "Y", "Type": "Retail Bank" }, "geometry": { "type": "Point", "coordinates": [ 2500261.5844918042, 6939914.7087563127 ] } },
{ "type": "Feature", "properties": { "X": -96.802656416299996, "Y": 32.793396057199999, "Name": "WELLS FARGO BANK, NATIONAL ASSOCIATION", "Address": "2222 MCKINNEY AVE STE 300", "City": "DALLAS", "Country": "USA", "County": "DALLAS", "State": "TEXAS", "ZIP": 75201.0, "Exists": "Y", "Type": "Retail Bank" }, "geometry": { "type": "Point", "coordinates": [ 2490209.9136503041, 6975736.0272053927 ] } },
{ "type": "Feature", "properties": { "X": -96.8778495, "Y": 32.720264499800003, "Name": "WELLS FARGO BANK, NATIONAL ASSOCIATION", "Address": "3450 W ILLINOIS AVE", "City": "DALLAS", "Country": "USA", "County": "DALLAS", "State": "TEXAS", "ZIP": 75211.0, "Exists": "Y", "Type": "Retail Bank" }, "geometry": { "type": "Point", "coordinates": [ 2467351.3514278829, 6948696.3188177347 ] } },
{ "type": "Feature", "properties": { "X": -96.8560785, "Y": 32.99652, "Name": "WELLS FARGO & COMPANY", "Address": "3580 FRANKFORD RD", "City": "DALLAS", "Country": "USA", "County": "COLLIN", "State": "TEXAS", "ZIP": 75287.0, "Exists": "Y", "Type": "Retail Bank" }, "geometry": { "type": "Point", "coordinates": [ 2472471.1938784719, 7049422.481866315 ] } },
{ "type": "Feature", "properties": { "X": -96.863067, "Y": 32.821596, "Name": "WELLS FARGO BANK, NATIONAL ASSOCIATION", "Address": "1440 W MOCKINGBIRD LN", "City": "DALLAS", "Country": "USA", "County": "DALLAS", "State": "TEXAS", "ZIP": 75247.0, "Exists": "Y", "Type": "Retail Bank" }, "geometry": { "type": "Point", "coordinates": [ 2471320.5101562142, 6985757.9005343169 ] } },
{ "type": "Feature", "properties": { "X": -96.7686075, "Y": 32.926203, "Name": "WELLS FARGO BANK, NATIONAL ASSOCIATION", "Address": "13050 COIT RD", "City": "DALLAS", "Country": "USA", "County": "DALLAS", "State": "TEXAS", "ZIP": 75240.0, "Exists": "Y", "Type": "Retail Bank" }, "geometry": { "type": "Point", "coordinates": [ 2499705.9717578888, 7024274.6522408128 ] } },
{ "type": "Feature", "properties": { "X": -96.827242979600001, "Y": 32.829247464399998, "Name": "WELLS FARGO BANK, NATIONAL ASSOCIATION", "Address": "3411 INWOOD RD", "City": "DALLAS", "Country": "USA", "County": "DALLAS", "State": "TEXAS", "ZIP": 75235.0, "Exists": "Y", "Type": "Retail Bank" }, "geometry": { "type": "Point", "coordinates": [ 2482183.6639548093, 6988830.3625652343 ] } },
{ "type": "Feature", "properties": { "X": -96.802947, "Y": 32.816997, "Name": "WELLS FARGO BANK, NATIONAL ASSOCIATION", "Address": "3927 OAK LAWN AVE", "City": "DALLAS", "Country": "USA", "County": "DALLAS", "State": "TEXAS", "ZIP": 75219.0, "Exists": "Y", "Type": "Retail Bank" }, "geometry": { "type": "Point", "coordinates": [ 2489813.0696277171, 6984378.0151707232 ] } },
{ "type": "Feature", "properties": { "X": -96.7430205, "Y": 32.865993, "Name": "WELLS FARGO BANK, NATIONAL ASSOCIATION", "Address": "6535 SKILLMAN ST", "City": "DALLAS", "Country": "USA", "County": "DALLAS", "State": "TEXAS", "ZIP": 75231.0, "Exists": "Y", "Type": "Retail Bank" }, "geometry": { "type": "Point", "coordinates": [ 2507921.8513234705, 7002503.177411139 ] } },
{ "type": "Feature", "properties": { "X": -96.767071030500006, "Y": 32.851111758099997, "Name": "WELLS FARGO BANK, NATIONAL ASSOCIATION", "Address": "5809 E LOVERS LN", "City": "DALLAS", "Country": "USA", "County": "DALLAS", "State": "TEXAS", "ZIP": 75206.0, "Exists": "Y", "Type": "Retail Bank" }, "geometry": { "type": "Point", "coordinates": [ 2500631.2428732216, 6997401.2335468084 ] } },
{ "type": "Feature", "properties": { "X": -96.8177205, "Y": 32.957658, "Name": "WELLS FARGO BANK, NATIONAL ASSOCIATION", "Address": "15216 MONTFORT RD", "City": "DALLAS", "Country": "USA", "County": "DALLAS", "State": "TEXAS", "ZIP": 75248.0, "Exists": "Y", "Type": "Retail Bank" }, "geometry": { "type": "Point", "coordinates": [ 2484455.8159065545, 7035472.0077988058 ] } },
{ "type": "Feature", "properties": { "X": -96.8945355, "Y": 32.762916, "Name": "WELLS FARGO BANK, NATIONAL ASSOCIATION", "Address": "1520 N COCKRELL HILL RD", "City": "DALLAS", "Country": "USA", "County": "DALLAS", "State": "TEXAS", "ZIP": 75211.0, "Exists": "Y", "Type": "Retail Bank" }, "geometry": { "type": "Point", "coordinates": [ 2461981.299832046, 6964263.1908991486 ] } },
{ "type": "Feature", "properties": { "X": -96.810768, "Y": 32.816952, "Name": "WELLS FARGO BANK, NATIONAL ASSOCIATION", "Address": "4232 LEMMON AVE", "City": "DALLAS", "Country": "USA", "County": "DALLAS", "State": "TEXAS", "ZIP": 75219.0, "Exists": "Y", "Type": "Retail Bank" }, "geometry": { "type": "Point", "coordinates": [ 2487411.0399829745, 6984322.9253858924 ] } },
{ "type": "Feature", "properties": { "X": -96.802542, "Y": 32.784795, "Name": "WELLS FARGO BANK, NATIONAL ASSOCIATION", "Address": "1445 ROSS AVE STE 100", "City": "DALLAS", "Country": "USA", "County": "DALLAS", "State": "TEXAS", "ZIP": 75202.0, "Exists": "Y", "Type": "Retail Bank" }, "geometry": { "type": "Point", "coordinates": [ 2490126.7553520501, 6972666.3223868161 ] } },
{ "type": "Feature", "properties": { "X": -96.861555, "Y": 32.909723463500001, "Name": "WELLS FARGO BANK, NATIONAL ASSOCIATION", "Address": "3535 FOREST LN", "City": "DALLAS", "Country": "USA", "County": "DALLAS", "State": "TEXAS", "ZIP": 75234.0, "Exists": "Y", "Type": "Retail Bank" }, "geometry": { "type": "Point", "coordinates": [ 2471283.3117398024, 7017924.2915819734 ] } },
{ "type": "Feature", "properties": { "X": -96.702021264400003, "Y": 32.833762557900002, "Name": "WELLS FARGO BANK, NATIONAL ASSOCIATION", "Address": "9508 GARLAND RD", "City": "DALLAS", "Country": "USA", "County": "DALLAS", "State": "TEXAS", "ZIP": 75218.0, "Exists": "Y", "Type": "Retail Bank" }, "geometry": { "type": "Point", "coordinates": [ 2520708.6974688917, 6990992.2375065535 ] } },
{ "type": "Feature", "properties": { "X": -96.774093, "Y": 32.864157, "Name": "WELLS FARGO BANK, NATIONAL ASSOCIATION", "Address": "7700 W NORTHWEST HWY", "City": "DALLAS", "Country": "USA", "County": "DALLAS", "State": "TEXAS", "ZIP": 75225.0, "Exists": "Y", "Type": "Retail Bank" }, "geometry": { "type": "Point", "coordinates": [ 2498393.9609304667, 7001677.1813597232 ] } },
{ "type": "Feature", "properties": { "X": -96.796692, "Y": 32.998716, "Name": "WELLS FARGO BANK, NATIONAL ASSOCIATION", "Address": "18126 PRESTON RD", "City": "DALLAS", "Country": "USA", "County": "COLLIN", "State": "TEXAS", "ZIP": 75252.0, "Exists": "Y", "Type": "Retail Bank" }, "geometry": { "type": "Point", "coordinates": [ 2490662.4937818795, 7050511.346486479 ] } },
{ "type": "Feature", "properties": { "X": -96.8068215, "Y": 32.865183, "Name": "WELLS FARGO BANK, NATIONAL ASSOCIATION", "Address": "5938 W NORTHWEST HWY", "City": "DALLAS", "Country": "USA", "County": "DALLAS", "State": "TEXAS", "ZIP": 75225.0, "Exists": "Y", "Type": "Retail Bank" }, "geometry": { "type": "Point", "coordinates": [ 2488340.4521661401, 7001886.8807434738 ] } },
{ "type": "Feature", "properties": { "X": -96.805524667399993, "Y": 32.800096367599998, "Name": "WELLS FARGO BANK, NATIONAL ASSOCIATION", "Address": "2611 CEDAR SPRINGS RD", "City": "DALLAS", "Country": "USA", "County": "DALLAS", "State": "TEXAS", "ZIP": 75201.0, "Exists": "Y", "Type": "Retail Bank" }, "geometry": { "type": "Point", "coordinates": [ 2489120.4843987226, 6978217.5038697273 ] } },
{ "type": "Feature", "properties": { "X": -96.828507, "Y": 32.997114, "Name": "WELLS FARGO BANK, NATIONAL ASSOCIATION", "Address": "18190 DALLAS PKWY", "City": "DALLAS", "Country": "USA", "County": "COLLIN", "State": "TEXAS", "ZIP": 75287.0, "Exists": "Y", "Type": "Retail Bank" }, "geometry": { "type": "Point", "coordinates": [ 2480919.504409641, 7049771.9355637282 ] } },
{ "type": "Feature", "properties": { "X": -96.803244, "Y": 32.982651, "Name": "WELLS FARGO BANK, NATIONAL ASSOCIATION", "Address": "17088 PRESTON RD", "City": "DALLAS", "Country": "USA", "County": "DALLAS", "State": "TEXAS", "ZIP": 75248.0, "Exists": "Y", "Type": "Retail Bank" }, "geometry": { "type": "Point", "coordinates": [ 2488748.5058119744, 7044634.9609295577 ] } },
{ "type": "Feature", "properties": { "X": -96.872554415899998, "Y": 32.647413953300003, "Name": "WOODFOREST NATIONAL BANK", "Address": "3200 W WHEATLAND RD", "City": "DALLAS", "Country": "USA", "County": "DALLAS", "State": "TEXAS", "ZIP": 75237.0, "Exists": "Y", "Type": "Retail Bank" }, "geometry": { "type": "Point", "coordinates": [ 2469388.1153989732, 6922352.3029363155 ] } },
{ "type": "Feature", "properties": { "X": -96.8579685, "Y": 32.995107, "Name": "WOODFOREST NATIONAL BANK", "Address": "18121 MARSH LN STE A", "City": "DALLAS", "Country": "USA", "County": "COLLIN", "State": "TEXAS", "ZIP": 75287.0, "Exists": "Y", "Type": "Retail Bank" }, "geometry": { "type": "Point", "coordinates": [ 2471899.8679213822, 7048899.4159833044 ] } },
{ "type": "Feature", "properties": { "X": -96.8579685, "Y": 32.995107, "Name": "WOODFOREST NATIONAL BANK", "Address": "18121 MARSH LN STE A", "City": "DALLAS", "Country": "USA", "County": "COLLIN", "State": "TEXAS", "ZIP": 75287.0, "Exists": "Y", "Type": "Retail Bank" }, "geometry": { "type": "Point", "coordinates": [ 2471899.8679213822, 7048899.4159833044 ] } },
{ "type": "Feature", "properties": { "X": -96.830379531899993, "Y": 32.8350345379, "Name": "ZB, NATIONAL ASSOCIATION", "Address": "6310 LEMMON AVE STE 100", "City": "DALLAS", "Country": "USA", "County": "DALLAS", "State": "TEXAS", "ZIP": 75209.0, "Exists": "Y", "Type": "Retail Bank" }, "geometry": { "type": "Point", "coordinates": [ 2481393.0037907213, 6990913.5683725625 ] } },
{ "type": "Feature", "properties": { "X": -96.7843425497, "Y": 32.826576893800002, "Name": "ZB, NATIONAL ASSOCIATION", "Address": "3014 MONTICELLO AVE", "City": "DALLAS", "Country": "USA", "County": "DALLAS", "State": "TEXAS", "ZIP": 75205.0, "Exists": "Y", "Type": "Retail Bank" }, "geometry": { "type": "Point", "coordinates": [ 2495470.6721576303, 6987955.5926612318 ] } },
{ "type": "Feature", "properties": { "X": -96.787780739400006, "Y": 32.866182136299997, "Name": "ZB, NATIONAL ASSOCIATION", "Address": "6823 W NORTHWEST HWY", "City": "DALLAS", "Country": "USA", "County": "DALLAS", "State": "TEXAS", "ZIP": 75225.0, "Exists": "Y", "Type": "Retail Bank" }, "geometry": { "type": "Point", "coordinates": [ 2494046.9374722987, 7002339.5832501501 ] } },
{ "type": "Feature", "properties": { "X": -96.807663, "Y": 32.862861, "Name": "COMMUNITY TRUST BANK OF TEXAS", "Address": "8222 DOUGLAS AVE STE 100", "City": "DALLAS", "Country": "USA", "County": "DALLAS", "State": "TEXAS", "ZIP": 75225.0, "Exists": "Y", "Type": "Retail Bank" }, "geometry": { "type": "Point", "coordinates": [ 2488095.7259495556, 7001038.0684647262 ] } },
{ "type": "Feature", "properties": { "X": -96.8612895, "Y": 32.648238, "Name": "WELLS FARGO BANK, NATIONAL ASSOCIATION", "Address": "39703 LYNDON B JHNSON FWY", "City": "DALLAS", "Country": "USA", "County": "DALLAS", "State": "TEXAS", "ZIP": 75237.0, "Exists": "Y", "Type": "Retail Bank" }, "geometry": { "type": "Point", "coordinates": [ 2472850.2088684738, 6922705.9515072256 ] } },
{ "type": "Feature", "properties": { "X": -96.821387923200007, "Y": 32.848956974499998, "Name": "INWOOD NATIONAL BANK", "Address": "7621 INWOOD RD STE 100", "City": "DALLAS", "Country": "USA", "County": "DALLAS", "State": "TEXAS", "ZIP": 75209.0, "Exists": "Y", "Type": "Retail Bank" }, "geometry": { "type": "Point", "coordinates": [ 2483822.0839063078, 6995906.8530053943 ] } },
{ "type": "Feature", "properties": { "X": -96.801981870399999, "Y": 32.795659465999996, "Name": "NEXBANK SSB", "Address": "2515 MCKINNEY AVE # 1100", "City": "DALLAS", "Country": "USA", "County": "DALLAS", "State": "TEXAS", "ZIP": 75201.0, "Exists": "Y", "Type": "Retail Bank" }, "geometry": { "type": "Point", "coordinates": [ 2490125.8639496416, 6976658.1247706413 ] } },
{ "type": "Feature", "properties": { "X": -96.821387923200007, "Y": 32.848956974499998, "Name": "INWOOD BANCSHARES, INC", "Address": "7621 INWOOD RD STE 100", "City": "DALLAS", "Country": "USA", "County": "DALLAS", "State": "TEXAS", "ZIP": 75209.0, "Exists": "Y", "Type": "Retail Bank" }, "geometry": { "type": "Point", "coordinates": [ 2483822.0839063078, 6995906.8530053943 ] } },
{ "type": "Feature", "properties": { "X": -96.7763025, "Y": 32.837436, "Name": "PARK CITIES BANK", "Address": "5307 E MOCKINGBIRD LN # 350", "City": "DALLAS", "Country": "USA", "County": "DALLAS", "State": "TEXAS", "ZIP": 75206.0, "Exists": "Y", "Type": "Retail Bank" }, "geometry": { "type": "Point", "coordinates": [ 2497875.1535691321, 6991946.0879610628 ] } },
{ "type": "Feature", "properties": { "X": -96.8298165, "Y": 32.837058, "Name": "PEGASUS BANK", "Address": "4515 W MOCKINGBIRD LN", "City": "DALLAS", "Country": "USA", "County": "DALLAS", "State": "TEXAS", "ZIP": 75209.0, "Exists": "Y", "Type": "Retail Bank" }, "geometry": { "type": "Point", "coordinates": [ 2481443.8147127181, 6991543.1117329001 ] } },
{ "type": "Feature", "properties": { "X": -96.810041924100005, "Y": 32.785787861199999, "Name": "PLAINSCAPITAL BANK", "Address": "2323 VICTORY AVE STE 1400", "City": "DALLAS", "Country": "USA", "County": "DALLAS", "State": "TEXAS", "ZIP": 75219.0, "Exists": "Y", "Type": "Retail Bank" }, "geometry": { "type": "Point", "coordinates": [ 2487645.1992915571, 6972943.9592987299 ] } },
{ "type": "Feature", "properties": { "X": -96.873175984100001, "Y": 32.912038026899999, "Name": "STATE BANK OF TEXAS", "Address": "11950 WEBB CHAPEL RD", "City": "DALLAS", "Country": "USA", "County": "DALLAS", "State": "TEXAS", "ZIP": 75234.0, "Exists": "Y", "Type": "Retail Bank" }, "geometry": { "type": "Point", "coordinates": [ 2467864.1853759736, 7018604.6691582203 ] } },
{ "type": "Feature", "properties": { "X": -96.803418049699999, "Y": 32.79109994, "Name": "TEXAS CAPITAL BANK, NATIONAL ASSOCIATION", "Address": "2000 MCKINNEY AVE STE 700", "City": "DALLAS", "Country": "USA", "County": "DALLAS", "State": "TEXAS", "ZIP": 75201.0, "Exists": "Y", "Type": "Retail Bank" }, "geometry": { "type": "Point", "coordinates": [ 2490070.1865675598, 6974712.0735446513 ] } },
{ "type": "Feature", "properties": { "X": -96.7759335, "Y": 32.920713, "Name": "TBK BANK, SSB", "Address": "12700 PARK CENTRAL DR # 1700", "City": "DALLAS", "Country": "USA", "County": "DALLAS", "State": "TEXAS", "ZIP": 75251.0, "Exists": "Y", "Type": "Retail Bank" }, "geometry": { "type": "Point", "coordinates": [ 2497491.2819615602, 7022240.6438416392 ] } },
{ "type": "Feature", "properties": { "X": -96.8058855, "Y": 32.86287, "Name": "VERITEX COMMUNITY BANK", "Address": "8214 WESTCHESTER DR # 400", "City": "DALLAS", "Country": "USA", "County": "DALLAS", "State": "TEXAS", "ZIP": 75225.0, "Exists": "Y", "Type": "Retail Bank" }, "geometry": { "type": "Point", "coordinates": [ 2488641.3665905595, 7001050.1383224726 ] } },
{ "type": "Feature", "properties": { "X": -96.810041924100005, "Y": 32.785787861199999, "Name": "HILLTOP HOLDINGS INC.", "Address": "2323 VICTORY AVE STE 1400", "City": "DALLAS", "Country": "USA", "County": "DALLAS", "State": "TEXAS", "ZIP": 75219.0, "Exists": "Y", "Type": "Retail Bank" }, "geometry": { "type": "Point", "coordinates": [ 2487645.1992915571, 6972943.9592987299 ] } },
{ "type": "Feature", "properties": { "X": -96.803418049699999, "Y": 32.79109994, "Name": "TEXAS CAPITAL BANCSHARES, INC.", "Address": "2000 MCKINNEY AVE STE 700", "City": "DALLAS", "Country": "USA", "County": "DALLAS", "State": "TEXAS", "ZIP": 75201.0, "Exists": "Y", "Type": "Retail Bank" }, "geometry": { "type": "Point", "coordinates": [ 2490070.1865675598, 6974712.0735446513 ] } },
{ "type": "Feature", "properties": { "X": -96.8058855, "Y": 32.86287, "Name": "VERITEX HOLDINGS, INC.", "Address": "8214 WESTCHESTER DR # 400", "City": "DALLAS", "Country": "USA", "County": "DALLAS", "State": "TEXAS", "ZIP": 75225.0, "Exists": "Y", "Type": "Retail Bank" }, "geometry": { "type": "Point", "coordinates": [ 2488641.3665905595, 7001050.1383224726 ] } },
{ "type": "Feature", "properties": { "X": -96.7759335, "Y": 32.920713, "Name": "TRIUMPH BANCORP, INC.", "Address": "12700 PARK CENTRAL DR # 1700", "City": "DALLAS", "Country": "USA", "County": "DALLAS", "State": "TEXAS", "ZIP": 75251.0, "Exists": "Y", "Type": "Retail Bank" }, "geometry": { "type": "Point", "coordinates": [ 2497491.2819615602, 7022240.6438416392 ] } },
{ "type": "Feature", "properties": { "X": -96.738727585099994, "Y": 32.912944276600001, "Name": "ABRAMS CENTRE", "Address": "9330 LYNDON B JOHNSON FWY # 100", "City": "DALLAS", "Country": "USA", "County": "DALLAS", "State": "TEXAS", "ZIP": 75243.0, "Exists": "Y", "Type": "Retail Bank" }, "geometry": { "type": "Point", "coordinates": [ 2508798.9266690463, 7019343.4134156406 ] } },
{ "type": "Feature", "properties": { "X": -96.807366, "Y": 32.862122509599999, "Name": "AMERICAN NATIONAL BANK ...", "Address": "6044 SHERRY LN", "City": "DALLAS", "Country": "USA", "County": "DALLAS", "State": "TEXAS", "ZIP": 75225.0, "Exists": "Y", "Type": "Retail Bank" }, "geometry": { "type": "Point", "coordinates": [ 2488192.7605323792, 7000676.1420232207 ] } },
{ "type": "Feature", "properties": { "X": -96.8107455, "Y": 32.865129, "Name": "B B AND T BRANCHES WESTCHESTER PARK CITIES", "Address": "5820 W NW HWY", "City": "DALLAS", "Country": "USA", "County": "DALLAS", "State": "TEXAS", "ZIP": 75225.0, "Exists": "Y", "Type": "Retail Bank" }, "geometry": { "type": "Point", "coordinates": [ 2487136.1294435561, 7001847.8430918902 ] } },
{ "type": "Feature", "properties": { "X": -96.8058855, "Y": 32.86287, "Name": "BB&T", "Address": "8214 WESTCHESTER DR # 100", "City": "DALLAS", "Country": "USA", "County": "DALLAS", "State": "TEXAS", "ZIP": 75225.0, "Exists": "Y", "Type": "Retail Bank" }, "geometry": { "type": "Point", "coordinates": [ 2488641.3665905595, 7001050.1383224726 ] } },
{ "type": "Feature", "properties": { "X": -96.821710749900006, "Y": 32.940323152300003, "Name": "BRAZOS NATIONAL BANK", "Address": "14114 DALLAS PKWY STE 150", "City": "DALLAS", "Country": "USA", "County": "DALLAS", "State": "TEXAS", "ZIP": 75254.0, "Exists": "Y", "Type": "Retail Bank" }, "geometry": { "type": "Point", "coordinates": [ 2483332.8614595532, 7029146.643152982 ] } },
{ "type": "Feature", "properties": { "X": -96.7686075, "Y": 32.926203, "Name": "CARL HANSEN", "Address": "13050 COIT RD", "City": "DALLAS", "Country": "USA", "County": "DALLAS", "State": "TEXAS", "ZIP": 75240.0, "Exists": "Y", "Type": "Retail Bank" }, "geometry": { "type": "Point", "coordinates": [ 2499705.9717578888, 7024274.6522408128 ] } },
{ "type": "Feature", "properties": { "X": -96.768275213500004, "Y": 32.984212295900001, "Name": "CHASE COIT AND CAMPBELL", "Address": "16831 COIT RD", "City": "DALLAS", "Country": "USA", "County": "DALLAS", "State": "TEXAS", "ZIP": 75248.0, "Exists": "Y", "Type": "Retail Bank" }, "geometry": { "type": "Point", "coordinates": [ 2499290.6986383051, 7045366.9545443058 ] } },
{ "type": "Feature", "properties": { "X": -96.649531600900005, "Y": 32.8584257889, "Name": "MARQUETTE BUSINESS CREDIT SPE I, LLC", "Address": "5910 N CENT EXPY STE 1900", "City": "DALLAS", "Country": "USA", "County": "DALLAS", "State": "TEXAS", "ZIP": 75206.0, "Exists": "Y", "Type": "Retail Bank" }, "geometry": { "type": "Point", "coordinates": [ 2536669.9608218819, 7000243.4112613946 ] } },
{ "type": "Feature", "properties": { "X": -96.7952132323, "Y": 32.786180458600001, "Name": "CHASE MELLON", "Address": "600 N PEARL ST", "City": "DALLAS", "Country": "USA", "County": "DALLAS", "State": "TEXAS", "ZIP": 75201.0, "Exists": "Y", "Type": "Retail Bank" }, "geometry": { "type": "Point", "coordinates": [ 2492297.7953013033, 6973543.0676805675 ] } },
{ "type": "Feature", "properties": { "X": -96.872105441599999, "Y": 32.8553513325, "Name": "AMERICAN BANK, NATIONAL ASSOCIATION", "Address": "2707 W NW HWY DALLAS", "City": "DALLAS", "Country": "USA", "County": "DALLAS", "State": "TEXAS", "ZIP": 75220.0, "Exists": "Y", "Type": "Retail Bank" }, "geometry": { "type": "Point", "coordinates": [ 2468354.1004066318, 6997993.6677293926 ] } },
{ "type": "Feature", "properties": { "X": -96.799194, "Y": 32.787603, "Name": "CROSS FIRST BANK", "Address": "2001 ROSS AVE", "City": "DALLAS", "Country": "USA", "County": "DALLAS", "State": "TEXAS", "ZIP": 75201.0, "Exists": "Y", "Type": "Retail Bank" }, "geometry": { "type": "Point", "coordinates": [ 2491138.9590363055, 6973704.3905206472 ] } },
{ "type": "Feature", "properties": { "X": -96.7933981706, "Y": 32.6943508365, "Name": "CHASE SOUTHEAST OAK CLIFF", "Address": "4435 S LANCASTER RD", "City": "DALLAS", "Country": "USA", "County": "DALLAS", "State": "TEXAS", "ZIP": 75216.0, "Exists": "Y", "Type": "Retail Bank" }, "geometry": { "type": "Point", "coordinates": [ 2493378.7134150565, 6939779.2503658086 ] } },
{ "type": "Feature", "properties": { "X": -96.807590098800006, "Y": 32.802871898, "Name": "DALLAS NATIONAL BANK", "Address": "2725 TURTLE CREEK BLVD # 100", "City": "DALLAS", "Country": "USA", "County": "DALLAS", "State": "TEXAS", "ZIP": 75219.0, "Exists": "Y", "Type": "Retail Bank" }, "geometry": { "type": "Point", "coordinates": [ 2488469.6809103042, 6979216.8936032206 ] } },
{ "type": "Feature", "properties": { "X": -96.7968125644, "Y": 33.000423075500002, "Name": "EBANK SYSTEMS INC", "Address": "18333 PRESTON RD STE 220", "City": "DALLAS", "Country": "USA", "County": "COLLIN", "State": "TEXAS", "ZIP": 75252.0, "Exists": "Y", "Type": "Retail Bank" }, "geometry": { "type": "Point", "coordinates": [ 2490490.0144680589, 7051192.9720917344 ] } },
{ "type": "Feature", "properties": { "X": -96.815529948199995, "Y": 32.926433410800001, "Name": "DALLAS TELCO FCU", "Address": "5429 LYNDON B JOHNSON FWY # 600", "City": "DALLAS", "Country": "USA", "County": "DALLAS", "State": "TEXAS", "ZIP": 75240.0, "Exists": "Y", "Type": "Retail Bank" }, "geometry": { "type": "Point", "coordinates": [ 2485306.8735876381, 7024407.3032222241 ] } },
{ "type": "Feature", "properties": { "X": -96.7992255, "Y": 32.78331, "Name": "FDIC AS RECEIVER FOR FIRST NATIONAL BANK", "Address": "1601 BRYAN ST", "City": "DALLAS", "Country": "USA", "County": "DALLAS", "State": "TEXAS", "ZIP": 75201.0, "Exists": "Y", "Type": "Retail Bank" }, "geometry": { "type": "Point", "coordinates": [ 2491154.5639919639, 6972142.627896145 ] } },
{ "type": "Feature", "properties": { "X": -96.768402965099995, "Y": 32.913791978399999, "Name": "FIRST ASSOCIATIONS BANK", "Address": "12001 N CENTRAL EXPY # 1165", "City": "DALLAS", "Country": "USA", "County": "DALLAS", "State": "TEXAS", "ZIP": 75243.0, "Exists": "Y", "Type": "Retail Bank" }, "geometry": { "type": "Point", "coordinates": [ 2499748.0884715468, 7019792.2478198111 ] } },
{ "type": "Feature", "properties": { "X": -96.810041924100005, "Y": 32.785787861199999, "Name": "FIRST NATIONAL GROUP COMMUNITY DEVELOPMENT CORPORATION", "Address": "2323 VICTORY AVE STE 1400", "City": "DALLAS", "Country": "USA", "County": "DALLAS", "State": "TEXAS", "ZIP": 75219.0, "Exists": "Y", "Type": "Retail Bank" }, "geometry": { "type": "Point", "coordinates": [ 2487645.1992915571, 6972943.9592987299 ] } },
{ "type": "Feature", "properties": { "X": -96.81012, "Y": 32.865111, "Name": "F&M BANK AND TRUST", "Address": "5840 W NORTHWEST HWY", "City": "DALLAS", "Country": "USA", "County": "DALLAS", "State": "TEXAS", "ZIP": 75225.0, "Exists": "Y", "Type": "Retail Bank" }, "geometry": { "type": "Point", "coordinates": [ 2487328.2586524636, 7001844.3841093183 ] } },
{ "type": "Feature", "properties": { "X": -96.803852982899997, "Y": 32.985355590600001, "Name": "COMMERCE SECURITY BANK", "Address": "17218 PRESTON RD", "City": "DALLAS", "Country": "USA", "County": "COLLIN", "State": "TEXAS", "ZIP": 75252.0, "Exists": "Y", "Type": "Retail Bank" }, "geometry": { "type": "Point", "coordinates": [ 2488771.053667143, 7045545.7015621513 ] } },
{ "type": "Feature", "properties": { "X": -96.803021087100007, "Y": 32.987214126300003, "Name": "GOLDWATER BANK", "Address": "17304 PRESTON RD", "City": "DALLAS", "Country": "USA", "County": "COLLIN", "State": "TEXAS", "ZIP": 75252.0, "Exists": "Y", "Type": "Retail Bank" }, "geometry": { "type": "Point", "coordinates": [ 2488790.0319756418, 7046295.968434304 ] } },
{ "type": "Feature", "properties": { "X": -96.797491029400007, "Y": 32.782185052499997, "Name": "IGNITION SYSTEMS NA", "Address": "211 N ERVAY ST", "City": "DALLAS", "Country": "USA", "County": "DALLAS", "State": "TEXAS", "ZIP": 75201.0, "Exists": "Y", "Type": "Retail Bank" }, "geometry": { "type": "Point", "coordinates": [ 2491660.4182952195, 6971738.2143348902 ] } },
{ "type": "Feature", "properties": { "X": -96.802320980399998, "Y": 32.81499, "Name": "ITX PIPELINE COMPANY LLC", "Address": "3838 OAK LAWN AVE # 1600", "City": "DALLAS", "Country": "USA", "County": "DALLAS", "State": "TEXAS", "ZIP": 75219.0, "Exists": "Y", "Type": "Retail Bank" }, "geometry": { "type": "Point", "coordinates": [ 2490188.3949925601, 6983653.8289550543 ] } },
{ "type": "Feature", "properties": { "X": -96.830136, "Y": 32.990607, "Name": "LTB", "Address": "17617 DALLAS PKWY", "City": "DALLAS", "Country": "USA", "County": "COLLIN", "State": "TEXAS", "ZIP": 75287.0, "Exists": "Y", "Type": "Retail Bank" }, "geometry": { "type": "Point", "coordinates": [ 2480457.7838763893, 7047396.9652480632 ] } },
{ "type": "Feature", "properties": { "X": -96.785055, "Y": 32.791527, "Name": "LIVE OAK STATE BANK", "Address": "3206 LIVE OAK ST", "City": "DALLAS", "Country": "USA", "County": "DALLAS", "State": "TEXAS", "ZIP": 75204.0, "Exists": "Y", "Type": "Retail Bank" }, "geometry": { "type": "Point", "coordinates": [ 2495460.0101054758, 6975202.4009760618 ] } },
{ "type": "Feature", "properties": { "X": -96.7992255, "Y": 32.78331, "Name": "MARSHALL BANKFIRST CORP.", "Address": "1601 BRYAN ST", "City": "DALLAS", "Country": "USA", "County": "DALLAS", "State": "TEXAS", "ZIP": 75201.0, "Exists": "Y", "Type": "Retail Bank" }, "geometry": { "type": "Point", "coordinates": [ 2491154.5639919639, 6972142.627896145 ] } },
{ "type": "Feature", "properties": { "X": -96.791126431099997, "Y": 32.962469756499999, "Name": "SIGNATURE BANCSHARES, INC.", "Address": "6757 ARAPAHO RD", "City": "DALLAS", "Country": "USA", "County": "DALLAS", "State": "TEXAS", "ZIP": 75248.0, "Exists": "Y", "Type": "Retail Bank" }, "geometry": { "type": "Point", "coordinates": [ 2492583.0007676333, 7037353.9892710596 ] } },
{ "type": "Feature", "properties": { "X": -96.7992255, "Y": 32.78331, "Name": "OMNI NATIONAL BANK", "Address": "1601 BRYAN ST STE 1410", "City": "DALLAS", "Country": "USA", "County": "DALLAS", "State": "TEXAS", "ZIP": 75201.0, "Exists": "Y", "Type": "Retail Bank" }, "geometry": { "type": "Point", "coordinates": [ 2491154.5639919639, 6972142.627896145 ] } },
{ "type": "Feature", "properties": { "X": -96.810659329399996, "Y": 32.864789275, "Name": "SNB BANK OF DALLAS", "Address": "5950 BERKSHIRE LN STE 350", "City": "DALLAS", "Country": "USA", "County": "DALLAS", "State": "TEXAS", "ZIP": 75225.0, "Exists": "Y", "Type": "Retail Bank" }, "geometry": { "type": "Point", "coordinates": [ 2487165.4837155491, 7001655.1088973135 ] } },
{ "type": "Feature", "properties": { "X": -96.821028069899995, "Y": 32.966310089899999, "Name": "T BANK, NATIONAL ASSOCIATION", "Address": "16000 DALLAS PKWY STE 125", "City": "DALLAS", "Country": "USA", "County": "DALLAS", "State": "TEXAS", "ZIP": 75248.0, "Exists": "Y", "Type": "Retail Bank" }, "geometry": { "type": "Point", "coordinates": [ 2483672.0261355489, 7038649.0385182202 ] } },
{ "type": "Feature", "properties": { "X": -96.825546682500004, "Y": 32.794580768800003, "Name": "TEXAS SECURITY BANKSHARES, INC.", "Address": "1212 TURTLE CREEK BLVD", "City": "DALLAS", "Country": "USA", "County": "DALLAS", "State": "TEXAS", "ZIP": 75207.0, "Exists": "Y", "Type": "Retail Bank" }, "geometry": { "type": "Point", "coordinates": [ 2483061.719941467, 6975981.4909533113 ] } },
{ "type": "Feature", "properties": { "X": -96.7992255, "Y": 32.78331, "Name": "THE COMMUNITY BANK", "Address": "1601 BRYAN ST STE 1410", "City": "DALLAS", "Country": "USA", "County": "DALLAS", "State": "TEXAS", "ZIP": 75201.0, "Exists": "Y", "Type": "Retail Bank" }, "geometry": { "type": "Point", "coordinates": [ 2491154.5639919639, 6972142.627896145 ] } },
{ "type": "Feature", "properties": { "X": -96.7992255, "Y": 32.78331, "Name": "THE COMMUNITY'S BANK", "Address": "1601 BRYAN ST STE 1410", "City": "DALLAS", "Country": "USA", "County": "DALLAS", "State": "TEXAS", "ZIP": 75201.0, "Exists": "Y", "Type": "Retail Bank" }, "geometry": { "type": "Point", "coordinates": [ 2491154.5639919639, 6972142.627896145 ] } },
{ "type": "Feature", "properties": { "X": -96.7759335, "Y": 32.920713, "Name": "TRIUMPH CONSOLIDATED COS., LLC", "Address": "12700 PARK CENTRAL DR # 1700", "City": "DALLAS", "Country": "USA", "County": "DALLAS", "State": "TEXAS", "ZIP": 75251.0, "Exists": "Y", "Type": "Retail Bank" }, "geometry": { "type": "Point", "coordinates": [ 2497491.2819615602, 7022240.6438416392 ] } },
{ "type": "Feature", "properties": { "X": -96.821145481599999, "Y": 32.972324908399997, "Name": "T BANCSHARES, INC.", "Address": "16200 DALLAS PKWY STE 190", "City": "DALLAS", "Country": "USA", "County": "DALLAS", "State": "TEXAS", "ZIP": 75248.0, "Exists": "Y", "Type": "Retail Bank" }, "geometry": { "type": "Point", "coordinates": [ 2483517.0622066408, 7040830.7985903919 ] } },
{ "type": "Feature", "properties": { "X": -96.754932, "Y": 32.835987, "Name": "BANK OF AMERICA", "Address": "6300 E MOCKINGBIRD LN", "City": "DALLAS", "Country": "USA", "County": "DALLAS", "State": "TEXAS", "ZIP": 75214.0, "Exists": "Y", "Type": "Retail Bank" }, "geometry": { "type": "Point", "coordinates": [ 2504446.5029592216, 6991527.3611082286 ] } },
{ "type": "Feature", "properties": { "X": -96.803602994200006, "Y": 32.838152553699999, "Name": "BANK OF AMERICA", "Address": "4005 SAINT ANDREWS DRIVE", "City": "DALLAS", "Country": "USA", "County": "DALLAS", "State": "TEXAS", "ZIP": 75205.0, "Exists": "Y", "Type": "Retail Bank" }, "geometry": { "type": "Point", "coordinates": [ 2489487.55026564, 6992035.4972310662 ] } },
{ "type": "Feature", "properties": { "X": -96.8037255, "Y": 32.837112, "Name": "BANK OF AMERICA", "Address": "5500 PRESTON RD", "City": "DALLAS", "Country": "USA", "County": "DALLAS", "State": "TEXAS", "ZIP": 75205.0, "Exists": "Y", "Type": "Retail Bank" }, "geometry": { "type": "Point", "coordinates": [ 2489455.7904866338, 6991691.1432609707 ] } },
{ "type": "Feature", "properties": { "X": -96.823836, "Y": 32.74182, "Name": "BANK OF AMERICA", "Address": "400 S ZANG BLVD", "City": "DALLAS", "Country": "USA", "County": "DALLAS", "State": "TEXAS", "ZIP": 75208.0, "Exists": "Y", "Type": "Retail Bank" }, "geometry": { "type": "Point", "coordinates": [ 2483833.1668893844, 6956928.7921821475 ] } },
{ "type": "Feature", "properties": { "X": -96.895736357000004, "Y": 32.765260369400004, "Name": "BANK OF AMERICA", "Address": "1633 N COCKRELL HILL RD", "City": "DALLAS", "Country": "USA", "County": "DALLAS", "State": "TEXAS", "ZIP": 75211.0, "Exists": "Y", "Type": "Retail Bank" }, "geometry": { "type": "Point", "coordinates": [ 2461441.6017644703, 6965089.9730382264 ] } },
{ "type": "Feature", "properties": { "X": -96.786947491800007, "Y": 32.850855, "Name": "BENCHMARK BANK", "Address": "7019 HILLCREST AVE", "City": "DALLAS", "Country": "USA", "County": "DALLAS", "State": "TEXAS", "ZIP": 75205.0, "Exists": "Y", "Type": "Retail Bank" }, "geometry": { "type": "Point", "coordinates": [ 2494455.5258939713, 6996772.716103062 ] } },
{ "type": "Feature", "properties": { "X": -96.859578719400005, "Y": 32.909496373000003, "Name": "BRANCH BANKING AND TRUST COMPANY", "Address": "3550 FOREST LN", "City": "DALLAS", "Country": "USA", "County": "DALLAS", "State": "TEXAS", "ZIP": 75234.0, "Exists": "Y", "Type": "Retail Bank" }, "geometry": { "type": "Point", "coordinates": [ 2471893.0519901365, 7017616.1642454714 ] } },
{ "type": "Feature", "properties": { "X": -96.805349227899995, "Y": 32.796618652600003, "Name": "BRANCH BANKING AND TRUST COMPANY", "Address": "2404 CEDAR SPRINGS RD STE 100", "City": "DALLAS", "Country": "USA", "County": "DALLAS", "State": "TEXAS", "ZIP": 75201.0, "Exists": "Y", "Type": "Retail Bank" }, "geometry": { "type": "Point", "coordinates": [ 2489194.7910086364, 6976953.3298888952 ] } },
{ "type": "Feature", "properties": { "X": -96.682221, "Y": 32.759964, "Name": "BRANCH BANKING AND TRUST COMPANY", "Address": "2820 S BUCKNER BLVD", "City": "DALLAS", "Country": "USA", "County": "DALLAS", "State": "TEXAS", "ZIP": 75227.0, "Exists": "Y", "Type": "Retail Bank" }, "geometry": { "type": "Point", "coordinates": [ 2527253.8129875511, 6964252.6689385623 ] } },
{ "type": "Feature", "properties": { "X": -96.828749805399994, "Y": 32.793576862000002, "Name": "BANCORPSOUTH BANK", "Address": "12655 N CNTL EXPY STE 100", "City": "DALLAS", "Country": "USA", "County": "DALLAS", "State": "TEXAS", "ZIP": 75243.0, "Exists": "Y", "Type": "Retail Bank" }, "geometry": { "type": "Point", "coordinates": [ 2482023.0281212181, 6975731.6702587306 ] } },
{ "type": "Feature", "properties": { "X": -96.812627273399997, "Y": 32.850995394199998, "Name": "CAPITAL ONE BANK", "Address": "5814 LOVERS LN", "City": "DALLAS", "Country": "USA", "County": "DALLAS", "State": "TEXAS", "ZIP": 75225.0, "Exists": "Y", "Type": "Retail Bank" }, "geometry": { "type": "Point", "coordinates": [ 2486641.0241345465, 6996697.3248496503 ] } },
{ "type": "Feature", "properties": { "X": -96.755553681600006, "Y": 32.861934324499998, "Name": "CAPITAL ONE BANK", "Address": "6161 RETAIL RD", "City": "DALLAS", "Country": "USA", "County": "DALLAS", "State": "TEXAS", "ZIP": 75231.0, "Exists": "Y", "Type": "Retail Bank" }, "geometry": { "type": "Point", "coordinates": [ 2503909.5201092958, 7000975.795295313 ] } },
{ "type": "Feature", "properties": { "X": -96.865428767799997, "Y": 32.757739619500001, "Name": "BRANCH BANKING AND TRUST COMPANY", "Address": "2606 FORT WORTH AVE", "City": "DALLAS", "Country": "USA", "County": "DALLAS", "State": "TEXAS", "ZIP": 75211.0, "Exists": "Y", "Type": "Retail Bank" }, "geometry": { "type": "Point", "coordinates": [ 2471007.9464768916, 6962401.6148978919 ] } },
{ "type": "Feature", "properties": { "X": -96.776964, "Y": 32.794353, "Name": "CAPITAL ONE BANK", "Address": "4111 GASTON AVE", "City": "DALLAS", "Country": "USA", "County": "DALLAS", "State": "TEXAS", "ZIP": 75246.0, "Exists": "Y", "Type": "Retail Bank" }, "geometry": { "type": "Point", "coordinates": [ 2497929.0776738822, 6976271.0543505549 ] } },
{ "type": "Feature", "properties": { "X": -96.772248, "Y": 32.871926500999997, "Name": "CITIBANK", "Address": "7839 PARK LN STE 130", "City": "DALLAS", "Country": "USA", "County": "DALLAS", "State": "TEXAS", "ZIP": 75225.0, "Exists": "Y", "Type": "Retail Bank" }, "geometry": { "type": "Point", "coordinates": [ 2498911.4720345587, 7004659.11962156 ] } },
{ "type": "Feature", "properties": { "X": -96.8583285, "Y": 32.860701, "Name": "CAPITAL ONE BANK", "Address": "3647 W NORTHWEST HWY", "City": "DALLAS", "Country": "USA", "County": "DALLAS", "State": "TEXAS", "ZIP": 75220.0, "Exists": "Y", "Type": "Retail Bank" }, "geometry": { "type": "Point", "coordinates": [ 2472553.6107083857, 7000005.50261648 ] } },
{ "type": "Feature", "properties": { "X": -96.717110378699999, "Y": 32.9224730627, "Name": "CITIBANK", "Address": "9820 WALNUT ST", "City": "DALLAS", "Country": "USA", "County": "DALLAS", "State": "TEXAS", "ZIP": 75243.0, "Exists": "Y", "Type": "Retail Bank" }, "geometry": { "type": "Point", "coordinates": [ 2515473.9894343913, 7023077.8669047207 ] } },
{ "type": "Feature", "properties": { "X": -96.7972725, "Y": 32.997897, "Name": "CITIBANK", "Address": "18008 PRESTON RD", "City": "DALLAS", "Country": "USA", "County": "DALLAS", "State": "TEXAS", "ZIP": 75252.0, "Exists": "Y", "Type": "Retail Bank" }, "geometry": { "type": "Point", "coordinates": [ 2490489.3825795501, 7050210.5383610576 ] } },
{ "type": "Feature", "properties": { "X": -96.804021298699993, "Y": 32.894526886999998, "Name": "BENCHMARK BANK", "Address": "10763 PRESTON RD", "City": "DALLAS", "Country": "USA", "County": "DALLAS", "State": "TEXAS", "ZIP": 75205.0, "Exists": "Y", "Type": "Retail Bank" }, "geometry": { "type": "Point", "coordinates": [ 2488959.6871481389, 7012575.6375811398 ] } }
]
}
