{
"type": "FeatureCollection",
"name": "sm_feature_supermarkets",
"crs": { "type": "name", "properties": { "name": "urn:ogc:def:crs:EPSG::2276" } },
"features": [
{ "type": "Feature", "properties": { "X": -96.8273879945, "Y": 32.999420996300003, "Name": "ALBERTSON'S LLC", "Address": "4625 FRANKFORD RD", "City": "DALLAS", "County": "COLLIN", "State": "TEXAS", "Zip4": 752877108.0, "ZIP": 75287.0, "NAICS": 445110.0, "NAICS_Desc": "Supermarkets and Other Grocery (except Convenience) Stores", "Type": "Supermarket" }, "geometry": { "type": "Point", "coordinates": [ 2481246.8114422387, 7050618.6684181374 ] } },
{ "type": "Feature", "properties": { "X": -96.769067178599997, "Y": 32.941413216800001, "Name": "EL RANCHO SUPERMARKET, INC.", "Address": "14211 COIT RD", "City": "DALLAS", "County": "DALLAS", "State": "TEXAS", "Zip4": 752542862.0, "ZIP": 75254.0, "NAICS": 445110.0, "NAICS_Desc": "Supermarkets and Other Grocery (except Convenience) Stores", "Type": "Supermarket" }, "geometry": { "type": "Point", "coordinates": [ 2499471.4371031024, 7029807.2593332287 ] } },
{ "type": "Feature", "properties": { "X": -96.859276023199996, "Y": 32.748857998600002, "Name": "EL RIO GRANDE LATIN MARKET", "Address": "2515 W JEFFERSON BLVD", "City": "DALLAS", "County": "DALLAS", "State": "TEXAS", "Zip4": 752112629.0, "ZIP": 75211.0, "NAICS": 445110.0, "NAICS_Desc": "Supermarkets and Other Grocery (except Convenience) Stores", "Type": "Supermarket" }, "geometry": { "type": "Point", "coordinates": [ 2472895.8150051096, 6959318.9625673257 ] } },
{ "type": "Feature", "properties": { "X": -96.700941748299996, "Y": 32.832788635100002, "Name": "ALBERTSON'S LLC", "Address": "320 CASA LINDA PLZ", "City": "DALLAS", "County": "DALLAS", "State": "TEXAS", "Zip4": 752185001.0, "ZIP": 75218.0, "NAICS": 445110.0, "NAICS_Desc": "Supermarkets and Other Grocery (except Convenience) Stores", "Type": "Supermarket" }, "geometry": { "type": "Point", "coordinates": [ 2521043.9402373834, 6990645.6997045483 ] } },
{ "type": "Feature", "properties": { "X": -96.870920378500003, "Y": 32.909561778700002, "Name": "ALDI INC.", "Address": "3128 FOREST LN STE 245", "City": "DALLAS", "County": "DALLAS", "State": "TEXAS", "Zip4": 752347005.0, "ZIP": 75234.0, "NAICS": 445110.0, "NAICS_Desc": "Supermarkets and Other Grocery (except Convenience) Stores", "Type": "Supermarket" }, "geometry": { "type": "Point", "coordinates": [ 2468409.7790301689, 7017721.1557523441 ] } },
{ "type": "Feature", "properties": { "X": -96.857902610099998, "Y": 32.720174054200001, "Name": "ALDI INC.", "Address": "2440 W ILLINOIS AVE", "City": "DALLAS", "County": "DALLAS", "State": "TEXAS", "Zip4": 752331106.0, "ZIP": 75233.0, "NAICS": 445110.0, "NAICS_Desc": "Supermarkets and Other Grocery (except Convenience) Stores", "Type": "Supermarket" }, "geometry": { "type": "Point", "coordinates": [ 2473481.1065690238, 6948891.5355788609 ] } },
{ "type": "Feature", "properties": { "X": -96.749947423500004, "Y": 32.8564308411, "Name": "ALDI INC.", "Address": "5828 ABRAMS RD", "City": "DALLAS", "County": "DALLAS", "State": "TEXAS", "Zip4": 752141603.0, "ZIP": 75214.0, "NAICS": 445110.0, "NAICS_Desc": "Supermarkets and Other Grocery (except Convenience) Stores", "Type": "Supermarket" }, "geometry": { "type": "Point", "coordinates": [ 2505850.984284055, 6998991.4412947046 ] } },
{ "type": "Feature", "properties": { "X": -96.863122143300004, "Y": 32.759055547800003, "Name": "ALDI INC.", "Address": "2505 FORT WORTH AVE", "City": "DALLAS", "County": "DALLAS", "State": "TEXAS", "Zip4": 752111745.0, "ZIP": 75211.0, "NAICS": 445110.0, "NAICS_Desc": "Supermarkets and Other Grocery (except Convenience) Stores", "Type": "Supermarket" }, "geometry": { "type": "Point", "coordinates": [ 2471655.723330541, 6963009.9688534206 ] } },
{ "type": "Feature", "properties": { "X": -96.682617523100006, "Y": 32.762064860599999, "Name": "ALDI INC.", "Address": "2926 S BUCKNER BLVD", "City": "DALLAS", "County": "DALLAS", "State": "TEXAS", "Zip4": 752276907.0, "ZIP": 75227.0, "NAICS": 445110.0, "NAICS_Desc": "Supermarkets and Other Grocery (except Convenience) Stores", "Type": "Supermarket" }, "geometry": { "type": "Point", "coordinates": [ 2527116.3808014109, 6965016.7938644662 ] } },
{ "type": "Feature", "properties": { "X": -96.78774, "Y": 32.963333005499997, "Name": "HEB GROCERY COMPANY, LP", "Address": "7007 ARAPAHO RD", "City": "DALLAS", "County": "DALLAS", "State": "TEXAS", "Zip4": 752484158.0, "ZIP": 75248.0, "NAICS": 445110.0, "NAICS_Desc": "Supermarkets and Other Grocery (except Convenience) Stores", "Type": "Supermarket" }, "geometry": { "type": "Point", "coordinates": [ 2493614.0030882587, 7037686.9799694549 ] } },
{ "type": "Feature", "properties": { "X": -96.788205027900005, "Y": 32.685507993500003, "Name": "AVT GROCERY, INC.", "Address": "2130 E LEDBETTER DR", "City": "DALLAS", "County": "DALLAS", "State": "TEXAS", "Zip4": 752167435.0, "ZIP": 75216.0, "NAICS": 445110.0, "NAICS_Desc": "Supermarkets and Other Grocery (except Convenience) Stores", "Type": "Supermarket" }, "geometry": { "type": "Point", "coordinates": [ 2495118.2792325229, 6936623.7617722871 ] } },
{ "type": "Feature", "properties": { "X": -96.772680988900007, "Y": 32.811133988599998, "Name": "SPROUTS FARMERS MARKET, INC.", "Address": "1800 N HENDERSON AVE # 118", "City": "DALLAS", "County": "DALLAS", "State": "TEXAS", "Zip4": 752067525.0, "ZIP": 75206.0, "NAICS": 445110.0, "NAICS_Desc": "Supermarkets and Other Grocery (except Convenience) Stores", "Type": "Supermarket" }, "geometry": { "type": "Point", "coordinates": [ 2499142.2539111008, 6982398.8919917392 ] } },
{ "type": "Feature", "properties": { "X": -96.768698998199994, "Y": 32.849474993000001, "Name": "CENTRAL MARKET DIVISION H", "Address": "5750 E LOVERS LN", "City": "DALLAS", "County": "DALLAS", "State": "TEXAS", "Zip4": 752062921.0, "ZIP": 75206.0, "NAICS": 445110.0, "NAICS_Desc": "Supermarkets and Other Grocery (except Convenience) Stores", "Type": "Supermarket" }, "geometry": { "type": "Point", "coordinates": [ 2500135.5681781601, 6996365.8030424444 ] } },
{ "type": "Feature", "properties": { "X": -96.762137979599999, "Y": 32.772986983300001, "Name": "FIESTA MART, INC.", "Address": "3230 MARTIN L KING JR AVE", "City": "DALLAS", "County": "DALLAS", "State": "TEXAS", "Zip4": 752102417.0, "ZIP": 75210.0, "NAICS": 445110.0, "NAICS_Desc": "Supermarkets and Other Grocery (except Convenience) Stores", "Type": "Supermarket" }, "geometry": { "type": "Point", "coordinates": [ 2502610.4001096152, 6968576.1630403828 ] } },
{ "type": "Feature", "properties": { "X": -96.672432001999994, "Y": 32.833977985600001, "Name": "EL RANCHO SUPER MARKET INC.", "Address": "2550 GUS THOMASSON RD", "City": "DALLAS", "County": "DALLAS", "State": "TEXAS", "Zip4": 752283017.0, "ZIP": 75228.0, "NAICS": 445110.0, "NAICS_Desc": "Supermarkets and Other Grocery (except Convenience) Stores", "Type": "Supermarket" }, "geometry": { "type": "Point", "coordinates": [ 2529791.7221246781, 6991229.4654146852 ] } },
{ "type": "Feature", "properties": { "X": -96.874149794199994, "Y": 32.733444139699998, "Name": "SUPERMERCADO MONTERREY", "Address": "1120 S WESTMORELAND RD", "City": "DALLAS", "County": "DALLAS", "State": "TEXAS", "Zip4": 752115651.0, "ZIP": 75211.0, "NAICS": 445110.0, "NAICS_Desc": "Supermarkets and Other Grocery (except Convenience) Stores", "Type": "Supermarket" }, "geometry": { "type": "Point", "coordinates": [ 2468410.4285589959, 6953640.9372237213 ] } },
{ "type": "Feature", "properties": { "X": -96.833039995700005, "Y": 32.743187515400002, "Name": "FIESTA MART, INC.", "Address": "611 W JEFFERSON BLVD FRNT", "City": "DALLAS", "County": "DALLAS", "State": "TEXAS", "Zip4": 752084828.0, "ZIP": 75208.0, "NAICS": 445110.0, "NAICS_Desc": "Supermarkets and Other Grocery (except Convenience) Stores", "Type": "Supermarket" }, "geometry": { "type": "Point", "coordinates": [ 2480993.4266490191, 6957383.257224489 ] } },
{ "type": "Feature", "properties": { "X": -96.771561166599994, "Y": 32.810037467999997, "Name": "FIESTA MART, INC.", "Address": "5334 ROSS AVE", "City": "DALLAS", "County": "DALLAS", "State": "TEXAS", "Zip4": 752067453.0, "ZIP": 75206.0, "NAICS": 445110.0, "NAICS_Desc": "Supermarkets and Other Grocery (except Convenience) Stores", "Type": "Supermarket" }, "geometry": { "type": "Point", "coordinates": [ 2499492.8016691012, 6982005.6845378391 ] } },
{ "type": "Feature", "properties": { "X": -96.682075968299998, "Y": 32.851479986100003, "Name": "FIESTA MART, L.L.C.", "Address": "11445 GARLAND RD", "City": "DALLAS", "County": "DALLAS", "State": "TEXAS", "Zip4": 752182506.0, "ZIP": 75218.0, "NAICS": 445110.0, "NAICS_Desc": "Supermarkets and Other Grocery (except Convenience) Stores", "Type": "Supermarket" }, "geometry": { "type": "Point", "coordinates": [ 2526719.9368438357, 6997544.4527134951 ] } },
{ "type": "Feature", "properties": { "X": -96.682876923199998, "Y": 32.761901439600003, "Name": "FIESTA MART, L.L.C.", "Address": "2951 S BUCKNER BLVD", "City": "DALLAS", "County": "DALLAS", "State": "TEXAS", "Zip4": 752276908.0, "ZIP": 75227.0, "NAICS": 445110.0, "NAICS_Desc": "Supermarkets and Other Grocery (except Convenience) Stores", "Type": "Supermarket" }, "geometry": { "type": "Point", "coordinates": [ 2527037.6842144458, 6964955.9703920996 ] } },
{ "type": "Feature", "properties": { "X": -96.855525959700003, "Y": 32.6925150131, "Name": "FIESTA MART, L.L.C.", "Address": "2225 W LEDBETTER DR", "City": "DALLAS", "County": "DALLAS", "State": "TEXAS", "Zip4": 752244713.0, "ZIP": 75224.0, "NAICS": 445110.0, "NAICS_Desc": "Supermarkets and Other Grocery (except Convenience) Stores", "Type": "Supermarket" }, "geometry": { "type": "Point", "coordinates": [ 2474369.4260773403, 6938841.7819866464 ] } },
{ "type": "Feature", "properties": { "X": -96.767559981299996, "Y": 32.9398225634, "Name": "FIESTA MART, L.L.C.", "Address": "8060 SPRING VALLEY RD", "City": "DALLAS", "County": "DALLAS", "State": "TEXAS", "Zip4": 752403827.0, "ZIP": 75240.0, "NAICS": 445110.0, "NAICS_Desc": "Supermarkets and Other Grocery (except Convenience) Stores", "Type": "Supermarket" }, "geometry": { "type": "Point", "coordinates": [ 2499943.2778043551, 7029236.2634514533 ] } },
{ "type": "Feature", "properties": { "X": -96.877379006200002, "Y": 32.720262465399998, "Name": "FIESTA MART, L.L.C.", "Address": "3434 W ILLINOIS AVE", "City": "DALLAS", "County": "DALLAS", "State": "TEXAS", "Zip4": 752118709.0, "ZIP": 75211.0, "NAICS": 445110.0, "NAICS_Desc": "Supermarkets and Other Grocery (except Convenience) Stores", "Type": "Supermarket" }, "geometry": { "type": "Point", "coordinates": [ 2467491.6683108383, 6948830.6303612674 ] } },
{ "type": "Feature", "properties": { "X": -96.746487038599994, "Y": 32.861797019299999, "Name": "FIESTA MART, L.L.C.", "Address": "6401 ABRAMS RD", "City": "DALLAS", "County": "DALLAS", "State": "TEXAS", "Zip4": 752317804.0, "ZIP": 75231.0, "NAICS": 445110.0, "NAICS_Desc": "Supermarkets and Other Grocery (except Convenience) Stores", "Type": "Supermarket" }, "geometry": { "type": "Point", "coordinates": [ 2506880.8067519614, 7000961.137274134 ] } },
{ "type": "Feature", "properties": { "X": -96.860457078600007, "Y": 32.778848198799999, "Name": "CASH SAVER, LLC", "Address": "2223 SINGLETON BLVD", "City": "DALLAS", "County": "DALLAS", "State": "TEXAS", "Zip4": 752123783.0, "ZIP": 75212.0, "NAICS": 445110.0, "NAICS_Desc": "Supermarkets and Other Grocery (except Convenience) Stores", "Type": "Supermarket" }, "geometry": { "type": "Point", "coordinates": [ 2472362.4905412104, 6970222.5050574075 ] } },
{ "type": "Feature", "properties": { "X": -96.866064023600003, "Y": 32.867266001600001, "Name": "FIESTA MART, L.L.C.", "Address": "9727 WEBB CHAPEL RD", "City": "DALLAS", "County": "DALLAS", "State": "TEXAS", "Zip4": 752203555.0, "ZIP": 75220.0, "NAICS": 445110.0, "NAICS_Desc": "Supermarkets and Other Grocery (except Convenience) Stores", "Type": "Supermarket" }, "geometry": { "type": "Point", "coordinates": [ 2470139.2283325675, 7002358.6330681602 ] } },
{ "type": "Feature", "properties": { "X": -96.803315503899995, "Y": 32.710495536499998, "Name": "FIESTA MART, L.L.C.", "Address": "3030 S LANCASTER RD", "City": "DALLAS", "County": "DALLAS", "State": "TEXAS", "Zip4": 752164455.0, "ZIP": 75216.0, "NAICS": 445110.0, "NAICS_Desc": "Supermarkets and Other Grocery (except Convenience) Stores", "Type": "Supermarket" }, "geometry": { "type": "Point", "coordinates": [ 2490323.2725082343, 6945637.6821407406 ] } },
{ "type": "Feature", "properties": { "X": -96.802109012800003, "Y": 32.893814003499998, "Name": "HEB GROCERY COMPANY, LP", "Address": "10720 PRESTON RD", "City": "DALLAS", "County": "DALLAS", "State": "TEXAS", "Zip4": 752303864.0, "ZIP": 75230.0, "NAICS": 445110.0, "NAICS_Desc": "Supermarkets and Other Grocery (except Convenience) Stores", "Type": "Supermarket" }, "geometry": { "type": "Point", "coordinates": [ 2489616.464086297, 7012327.0954595404 ] } },
{ "type": "Feature", "properties": { "X": -96.847114929400007, "Y": 32.778588192000001, "Name": "JERRY'S SUPERMARKETS, INC", "Address": "1719 SINGLETON BLVD", "City": "DALLAS", "County": "DALLAS", "State": "TEXAS", "Zip4": 752123856.0, "ZIP": 75212.0, "NAICS": 445110.0, "NAICS_Desc": "Supermarkets and Other Grocery (except Convenience) Stores", "Type": "Supermarket" }, "geometry": { "type": "Point", "coordinates": [ 2476463.9363382682, 6970192.1775891967 ] } },
{ "type": "Feature", "properties": { "X": -96.856401827499994, "Y": 32.720161925299998, "Name": "JERRY'S SUPERMARKETS, INC", "Address": "2314 W ILLINOIS AVE", "City": "DALLAS", "County": "DALLAS", "State": "TEXAS", "Zip4": 752241638.0, "ZIP": 75224.0, "NAICS": 445110.0, "NAICS_Desc": "Supermarkets and Other Grocery (except Convenience) Stores", "Type": "Supermarket" }, "geometry": { "type": "Point", "coordinates": [ 2473942.6617819229, 6948894.3409375325 ] } },
{ "type": "Feature", "properties": { "X": -96.687238633999996, "Y": 32.734187698299998, "Name": "SUPER MERCADO MEXICO", "Address": "7828 LAKE JUNE RD", "City": "DALLAS", "County": "DALLAS", "State": "TEXAS", "Zip4": 752171601.0, "ZIP": 75217.0, "NAICS": 445110.0, "NAICS_Desc": "Supermarkets and Other Grocery (except Convenience) Stores", "Type": "Supermarket" }, "geometry": { "type": "Point", "coordinates": [ 2525871.1055050548, 6954851.9642367307 ] } },
{ "type": "Feature", "properties": { "X": -96.712684839000005, "Y": 32.802632069300003, "Name": "FIESTA MART, LLC", "Address": "8040 FERGUSON RD", "City": "DALLAS", "County": "DALLAS", "State": "TEXAS", "Zip4": 752285848.0, "ZIP": 75228.0, "NAICS": 445110.0, "NAICS_Desc": "Supermarkets and Other Grocery (except Convenience) Stores", "Type": "Supermarket" }, "geometry": { "type": "Point", "coordinates": [ 2517624.2852799217, 6979614.6126442747 ] } },
{ "type": "Feature", "properties": { "X": -96.832680181699999, "Y": 32.721519462400003, "Name": "EL RANCHO SUPERMARKET, INC.", "Address": "900 WYNNEWOOD VLG SHP CTR", "City": "DALLAS", "County": "DALLAS", "State": "TEXAS", "Zip4": 752241833.0, "ZIP": 75224.0, "NAICS": 445110.0, "NAICS_Desc": "Supermarkets and Other Grocery (except Convenience) Stores", "Type": "Supermarket" }, "geometry": { "type": "Point", "coordinates": [ 2481229.144248079, 6949503.1088824524 ] } },
{ "type": "Feature", "properties": { "X": -96.853757964799996, "Y": 32.908332004599998, "Name": "SPROUTS FARMERS MARKET, INC.", "Address": "11722 MARSH LN STE 317", "City": "DALLAS", "County": "DALLAS", "State": "TEXAS", "Zip4": 752292682.0, "ZIP": 75229.0, "NAICS": 445110.0, "NAICS_Desc": "Supermarkets and Other Grocery (except Convenience) Stores", "Type": "Supermarket" }, "geometry": { "type": "Point", "coordinates": [ 2473682.9285735395, 7017355.9077535616 ] } },
{ "type": "Feature", "properties": { "X": -96.649031991399994, "Y": 32.734177514300001, "Name": "FIESTA MART, LLC", "Address": "10121 LAKE JUNE RD", "City": "DALLAS", "County": "DALLAS", "State": "TEXAS", "Zip4": 752173002.0, "ZIP": 75217.0, "NAICS": 445110.0, "NAICS_Desc": "Supermarkets and Other Grocery (except Convenience) Stores", "Type": "Supermarket" }, "geometry": { "type": "Point", "coordinates": [ 2537617.393052347, 6955053.1040477008 ] } },
{ "type": "Feature", "properties": { "X": -96.843159970299993, "Y": 32.662257474199997, "Name": "RLS SUPERMARKETS, LLC", "Address": "1201 W CAMP WISDOM RD", "City": "DALLAS", "County": "DALLAS", "State": "TEXAS", "Zip4": 752323446.0, "ZIP": 75232.0, "NAICS": 445110.0, "NAICS_Desc": "Supermarkets and Other Grocery (except Convenience) Stores", "Type": "Supermarket" }, "geometry": { "type": "Point", "coordinates": [ 2478346.7096972833, 6927895.1792625105 ] } },
{ "type": "Feature", "properties": { "X": -96.847919324000003, "Y": 32.741274876, "Name": "SUPER MERCADO MEXICO", "Address": "501 S ROSEMONT AVE", "City": "DALLAS", "County": "DALLAS", "State": "TEXAS", "Zip4": 752085841.0, "ZIP": 75208.0, "NAICS": 445110.0, "NAICS_Desc": "Supermarkets and Other Grocery (except Convenience) Stores", "Type": "Supermarket" }, "geometry": { "type": "Point", "coordinates": [ 2476430.2180110561, 6956615.256344554 ] } },
{ "type": "Feature", "properties": { "X": -96.701551990900001, "Y": 32.865582999200001, "Name": "THE KROGER CO", "Address": "10677 E NORTHWEST HWY # 300", "City": "DALLAS", "County": "DALLAS", "State": "TEXAS", "Zip4": 752384899.0, "ZIP": 75238.0, "NAICS": 445110.0, "NAICS_Desc": "Supermarkets and Other Grocery (except Convenience) Stores", "Type": "Supermarket" }, "geometry": { "type": "Point", "coordinates": [ 2520652.2980986014, 7002571.5341200447 ] } },
{ "type": "Feature", "properties": { "X": -96.774036929399998, "Y": 32.865370098900001, "Name": "SAFEWAY INC.", "Address": "7700 W NORTHWEST HWY", "City": "DALLAS", "County": "DALLAS", "State": "TEXAS", "Zip4": 752252288.0, "ZIP": 75225.0, "NAICS": 445110.0, "NAICS_Desc": "Supermarkets and Other Grocery (except Convenience) Stores", "Type": "Supermarket" }, "geometry": { "type": "Point", "coordinates": [ 2498401.5798539524, 7002120.7933540558 ] } },
{ "type": "Feature", "properties": { "X": -96.891441779600001, "Y": 32.7298219356, "Name": "TERRY'S SUPERMARKET MANAGEMENT L.L.C.", "Address": "4444 WESTERN PK SHOPG VLG STE 100", "City": "DALLAS", "County": "DALLAS", "State": "TEXAS", "Zip4": 75211.0, "ZIP": 75211.0, "NAICS": 445110.0, "NAICS_Desc": "Supermarkets and Other Grocery (except Convenience) Stores", "Type": "Supermarket" }, "geometry": { "type": "Point", "coordinates": [ 2463114.1467343839, 6952241.4757960616 ] } },
{ "type": "Feature", "properties": { "X": -96.868753441099997, "Y": 32.858570824799997, "Name": "TERRY'S SUPERMARKET MANAGEMENT L.L.C.", "Address": "3025 WEBB CHAPEL EXT", "City": "DALLAS", "County": "DALLAS", "State": "TEXAS", "Zip4": 752206205.0, "ZIP": 75220.0, "NAICS": 445110.0, "NAICS_Desc": "Supermarkets and Other Grocery (except Convenience) Stores", "Type": "Supermarket" }, "geometry": { "type": "Point", "coordinates": [ 2469362.7271983931, 6999182.8195117535 ] } },
{ "type": "Feature", "properties": { "X": -96.745799337500003, "Y": 32.909001784200001, "Name": "THE KROGER CO", "Address": "9140 FOREST LN", "City": "DALLAS", "County": "DALLAS", "State": "TEXAS", "Zip4": 752434202.0, "ZIP": 75243.0, "NAICS": 445110.0, "NAICS_Desc": "Supermarkets and Other Grocery (except Convenience) Stores", "Type": "Supermarket" }, "geometry": { "type": "Point", "coordinates": [ 2506805.1813399578, 7018135.7177121695 ] } },
{ "type": "Feature", "properties": { "X": -96.829312982399998, "Y": 32.813920007500002, "Name": "THE KROGER CO", "Address": "4901 MAPLE AVE", "City": "DALLAS", "County": "DALLAS", "State": "TEXAS", "Zip4": 752358210.0, "ZIP": 75235.0, "NAICS": 445110.0, "NAICS_Desc": "Supermarkets and Other Grocery (except Convenience) Stores", "Type": "Supermarket" }, "geometry": { "type": "Point", "coordinates": [ 2481729.9559365143, 6983130.9633548455 ] } },
{ "type": "Feature", "properties": { "X": -96.812252959600002, "Y": 32.813334992500003, "Name": "THE KROGER CO", "Address": "4142 CEDAR SPRINGS RD", "City": "DALLAS", "County": "DALLAS", "State": "TEXAS", "Zip4": 752193522.0, "ZIP": 75219.0, "NAICS": 445110.0, "NAICS_Desc": "Supermarkets and Other Grocery (except Convenience) Stores", "Type": "Supermarket" }, "geometry": { "type": "Point", "coordinates": [ 2486973.7131422181, 6983001.9303443525 ] } },
{ "type": "Feature", "properties": { "X": -96.800702026500005, "Y": 32.983890000300001, "Name": "THE KROGER CO", "Address": "17194 PRESTON RD STE 300", "City": "DALLAS", "County": "DALLAS", "State": "TEXAS", "Zip4": 752481203.0, "ZIP": 75248.0, "NAICS": 445110.0, "NAICS_Desc": "Supermarkets and Other Grocery (except Convenience) Stores", "Type": "Supermarket" }, "geometry": { "type": "Point", "coordinates": [ 2489518.2021540026, 7045100.3264313713 ] } },
{ "type": "Feature", "properties": { "X": -96.832343338800001, "Y": 32.721615009499999, "Name": "THE KROGER CO", "Address": "752 WYNNEWOOD VLG SHP CTR", "City": "DALLAS", "County": "DALLAS", "State": "TEXAS", "Zip4": 752241831.0, "ZIP": 75224.0, "NAICS": 445110.0, "NAICS_Desc": "Supermarkets and Other Grocery (except Convenience) Stores", "Type": "Supermarket" }, "geometry": { "type": "Point", "coordinates": [ 2481332.1687106574, 6949539.5092747025 ] } },
{ "type": "Feature", "properties": { "X": -96.845820973100004, "Y": 32.998568011899998, "Name": "THE KROGER CO", "Address": "3939 FRANKFORD RD", "City": "DALLAS", "County": "COLLIN", "State": "TEXAS", "Zip4": 752876318.0, "ZIP": 75287.0, "NAICS": 445110.0, "NAICS_Desc": "Supermarkets and Other Grocery (except Convenience) Stores", "Type": "Supermarket" }, "geometry": { "type": "Point", "coordinates": [ 2475601.4540855675, 7050218.90842342 ] } },
{ "type": "Feature", "properties": { "X": -96.774036929399998, "Y": 32.865370098900001, "Name": "TOM THUMB FOOD & DRUGS, INC", "Address": "7700 W NW HWY STE 100", "City": "DALLAS", "County": "DALLAS", "State": "TEXAS", "Zip4": 752252289.0, "ZIP": 75225.0, "NAICS": 445110.0, "NAICS_Desc": "Supermarkets and Other Grocery (except Convenience) Stores", "Type": "Supermarket" }, "geometry": { "type": "Point", "coordinates": [ 2498401.5798539524, 7002120.7933540558 ] } },
{ "type": "Feature", "properties": { "X": -96.770279992699997, "Y": 32.8366574705, "Name": "THE KROGER CO", "Address": "5665 E MOCKINGBIRD LN", "City": "DALLAS", "County": "DALLAS", "State": "TEXAS", "Zip4": 752065380.0, "ZIP": 75206.0, "NAICS": 445110.0, "NAICS_Desc": "Supermarkets and Other Grocery (except Convenience) Stores", "Type": "Supermarket" }, "geometry": { "type": "Point", "coordinates": [ 2499726.9060979704, 6991695.3469494944 ] } },
{ "type": "Feature", "properties": { "X": -96.754515979800004, "Y": 32.837421983900001, "Name": "TOM THUMB FOOD & DRUGS, INC.", "Address": "6333 E MOCKINGBIRD LN # 134", "City": "DALLAS", "County": "DALLAS", "State": "TEXAS", "Zip4": 752146952.0, "ZIP": 75214.0, "NAICS": 445110.0, "NAICS_Desc": "Supermarkets and Other Grocery (except Convenience) Stores", "Type": "Supermarket" }, "geometry": { "type": "Point", "coordinates": [ 2504563.2423763699, 6992053.5203968231 ] } },
{ "type": "Feature", "properties": { "X": -96.8054875065, "Y": 32.8958590202, "Name": "TOM THUMB FOOD & DRUGS, INC", "Address": "5959 ROYAL LN", "City": "DALLAS", "County": "DALLAS", "State": "TEXAS", "Zip4": 752303856.0, "ZIP": 75230.0, "NAICS": 445110.0, "NAICS_Desc": "Supermarkets and Other Grocery (except Convenience) Stores", "Type": "Supermarket" }, "geometry": { "type": "Point", "coordinates": [ 2488567.6274620332, 7013054.2494413685 ] } },
{ "type": "Feature", "properties": { "X": -96.787270026599998, "Y": 32.8505140137, "Name": "TOM THUMB FOOD & DRUGS, INC", "Address": "7000 SNIDER PLZ", "City": "DALLAS", "County": "DALLAS", "State": "TEXAS", "Zip4": 752051335.0, "ZIP": 75205.0, "NAICS": 445110.0, "NAICS_Desc": "Supermarkets and Other Grocery (except Convenience) Stores", "Type": "Supermarket" }, "geometry": { "type": "Point", "coordinates": [ 2494427.2545684408, 6996650.2785140974 ] } },
{ "type": "Feature", "properties": { "X": -96.771880014199994, "Y": 32.888886995100002, "Name": "TOM THUMB FOOD & DRUGS, INC", "Address": "10455 N CENTRAL EXPY", "City": "DALLAS", "County": "DALLAS", "State": "TEXAS", "Zip4": 752312213.0, "ZIP": 75231.0, "NAICS": 445110.0, "NAICS_Desc": "Supermarkets and Other Grocery (except Convenience) Stores", "Type": "Supermarket" }, "geometry": { "type": "Point", "coordinates": [ 2498922.9994425094, 7010686.1385822752 ] } },
{ "type": "Feature", "properties": { "X": -96.800999751700004, "Y": 32.910919121, "Name": "TOM THUMB FOOD & DRUGS, INC.", "Address": "11920 PRESTON RD", "City": "DALLAS", "County": "DALLAS", "State": "TEXAS", "Zip4": 752302799.0, "ZIP": 75230.0, "NAICS": 445110.0, "NAICS_Desc": "Supermarkets and Other Grocery (except Convenience) Stores", "Type": "Supermarket" }, "geometry": { "type": "Point", "coordinates": [ 2489856.2508453145, 7018554.7682011444 ] } },
{ "type": "Feature", "properties": { "X": -96.805768970800003, "Y": 32.952448014600002, "Name": "TOM THUMB FOOD & DRUGS, INC.", "Address": "14999 PRESTON RD STE 100B", "City": "DALLAS", "County": "DALLAS", "State": "TEXAS", "Zip4": 752546811.0, "ZIP": 75254.0, "NAICS": 445110.0, "NAICS_Desc": "Supermarkets and Other Grocery (except Convenience) Stores", "Type": "Supermarket" }, "geometry": { "type": "Point", "coordinates": [ 2488149.242540821, 7033637.77471257 ] } },
{ "type": "Feature", "properties": { "X": -96.767070059100007, "Y": 32.851113738899997, "Name": "TOM THUMB FOOD & DRUGS, INC.", "Address": "5809 E LOVERS LN", "City": "DALLAS", "County": "DALLAS", "State": "TEXAS", "Zip4": 752064324.0, "ZIP": 75206.0, "NAICS": 445110.0, "NAICS_Desc": "Supermarkets and Other Grocery (except Convenience) Stores", "Type": "Supermarket" }, "geometry": { "type": "Point", "coordinates": [ 2500625.8917833511, 6996970.1551719345 ] } },
{ "type": "Feature", "properties": { "X": -96.852620037700007, "Y": 32.9107899977, "Name": "TOM THUMB FOOD & DRUGS, INC.", "Address": "3757 FOREST LN", "City": "DALLAS", "County": "DALLAS", "State": "TEXAS", "Zip4": 752447127.0, "ZIP": 75244.0, "NAICS": 445110.0, "NAICS_Desc": "Supermarkets and Other Grocery (except Convenience) Stores", "Type": "Supermarket" }, "geometry": { "type": "Point", "coordinates": [ 2474018.0738127958, 7018255.5105822412 ] } },
{ "type": "Feature", "properties": { "X": -96.802156035199999, "Y": 32.863666016099998, "Name": "TOM THUMB FOOD & DRUGS, INC.", "Address": "4001 VILLANOVA ST", "City": "DALLAS", "County": "DALLAS", "State": "TEXAS", "Zip4": 752255317.0, "ZIP": 75225.0, "NAICS": 445110.0, "NAICS_Desc": "Supermarkets and Other Grocery (except Convenience) Stores", "Type": "Supermarket" }, "geometry": { "type": "Point", "coordinates": [ 2489779.2875970216, 7001360.2372997096 ] } },
{ "type": "Feature", "properties": { "X": -96.793667011300002, "Y": 32.999784980400001, "Name": "TOM THUMB FOOD & DRUGS, INC.", "Address": "18212 PRESTON RD", "City": "DALLAS", "County": "COLLIN", "State": "TEXAS", "Zip4": 752525412.0, "ZIP": 75252.0, "NAICS": 445110.0, "NAICS_Desc": "Supermarkets and Other Grocery (except Convenience) Stores", "Type": "Supermarket" }, "geometry": { "type": "Point", "coordinates": [ 2491581.0814818013, 7050917.3173107356 ] } },
{ "type": "Feature", "properties": { "X": -96.720654013000001, "Y": 32.8959559989, "Name": "TOM THUMB FOOD & DRUGS, INC.", "Address": "8698 SKILLMAN ST", "City": "DALLAS", "County": "DALLAS", "State": "TEXAS", "Zip4": 752438265.0, "ZIP": 75243.0, "NAICS": 445110.0, "NAICS_Desc": "Supermarkets and Other Grocery (except Convenience) Stores", "Type": "Supermarket" }, "geometry": { "type": "Point", "coordinates": [ 2514601.0869957167, 7013520.0047532059 ] } },
{ "type": "Feature", "properties": { "X": -96.822584996399996, "Y": 32.844429003499997, "Name": "TOM THUMB FOOD & DRUGS, INC.", "Address": "7117 INWOOD RD", "City": "DALLAS", "County": "DALLAS", "State": "TEXAS", "Zip4": 752094803.0, "ZIP": 75209.0, "NAICS": 445110.0, "NAICS_Desc": "Supermarkets and Other Grocery (except Convenience) Stores", "Type": "Supermarket" }, "geometry": { "type": "Point", "coordinates": [ 2483619.379651119, 6994261.8230837695 ] } },
{ "type": "Feature", "properties": { "X": -96.818396182499995, "Y": 32.851114091200003, "Name": "TRADER JOE'S COMPANY", "Address": "5550 W LOVERS LN STE 168", "City": "DALLAS", "County": "DALLAS", "State": "TEXAS", "Zip4": 752094268.0, "ZIP": 75209.0, "NAICS": 445110.0, "NAICS_Desc": "Supermarkets and Other Grocery (except Convenience) Stores", "Type": "Supermarket" }, "geometry": { "type": "Point", "coordinates": [ 2484866.6887782626, 6996714.1523619015 ] } },
{ "type": "Feature", "properties": { "X": -96.770208231699996, "Y": 32.978408349299997, "Name": "VITAMIN COTTAGE NATURAL FOOD MARKETS, INC", "Address": "7517 CAMPBELL RD STE 500", "City": "DALLAS", "County": "DALLAS", "State": "TEXAS", "Zip4": 752481762.0, "ZIP": 75248.0, "NAICS": 445110.0, "NAICS_Desc": "Supermarkets and Other Grocery (except Convenience) Stores", "Type": "Supermarket" }, "geometry": { "type": "Point", "coordinates": [ 2498899.8391240616, 7043258.8989587585 ] } },
{ "type": "Feature", "properties": { "X": -96.702039985300004, "Y": 32.833120014000002, "Name": "VITAMIN COTTAGE NATURAL FOOD MARKETS, INC.", "Address": "9440 GARLAND RD", "City": "DALLAS", "County": "DALLAS", "State": "TEXAS", "Zip4": 752185003.0, "ZIP": 75218.0, "NAICS": 445110.0, "NAICS_Desc": "Supermarkets and Other Grocery (except Convenience) Stores", "Type": "Supermarket" }, "geometry": { "type": "Point", "coordinates": [ 2520704.6089528399, 6990760.4650282636 ] } },
{ "type": "Feature", "properties": { "X": -96.814371988600001, "Y": 32.820456006000001, "Name": "WHOLE FOODS MARKET ROCKY MOUNTAIN\/SOUTHWEST, L.P.", "Address": "4100 LOMO ALTO DR", "City": "DALLAS", "County": "DALLAS", "State": "TEXAS", "Zip4": 752191535.0, "ZIP": 75219.0, "NAICS": 445110.0, "NAICS_Desc": "Supermarkets and Other Grocery (except Convenience) Stores", "Type": "Supermarket" }, "geometry": { "type": "Point", "coordinates": [ 2486281.239739215, 6985581.8058942556 ] } },
{ "type": "Feature", "properties": { "X": -96.820495974699995, "Y": 32.950356017300003, "Name": "WHOLE FOODS MARKET, INC.", "Address": "5100 BELT LINE RD # 1012", "City": "DALLAS", "County": "DALLAS", "State": "TEXAS", "Zip4": 752547031.0, "ZIP": 75254.0, "NAICS": 445110.0, "NAICS_Desc": "Supermarkets and Other Grocery (except Convenience) Stores", "Type": "Supermarket" }, "geometry": { "type": "Point", "coordinates": [ 2483644.7755539618, 7032804.2507222667 ] } },
{ "type": "Feature", "properties": { "X": -96.752256973100003, "Y": 32.815842019800002, "Name": "WHOLE FOODS MARKET, INC.", "Address": "2118 ABRAMS RD", "City": "DALLAS", "County": "DALLAS", "State": "TEXAS", "Zip4": 752143918.0, "ZIP": 75214.0, "NAICS": 445110.0, "NAICS_Desc": "Supermarkets and Other Grocery (except Convenience) Stores", "Type": "Supermarket" }, "geometry": { "type": "Point", "coordinates": [ 2505387.5586349471, 6984215.2344703516 ] } },
{ "type": "Feature", "properties": { "X": -96.765505208500002, "Y": 32.871782940499997, "Name": "WHOLE FOODS MARKET, INC.", "Address": "8190 PARK LN STE 351", "City": "DALLAS", "County": "DALLAS", "State": "TEXAS", "Zip4": 752316046.0, "ZIP": 75231.0, "NAICS": 445110.0, "NAICS_Desc": "Supermarkets and Other Grocery (except Convenience) Stores", "Type": "Supermarket" }, "geometry": { "type": "Point", "coordinates": [ 2500982.2156884661, 7004496.6521908715 ] } },
{ "type": "Feature", "properties": { "X": -96.688046984699994, "Y": 32.778002546499998, "Name": "MALONE'S FOOD STORES, LLC", "Address": "7730 FORNEY RD STE 1", "City": "DALLAS", "County": "DALLAS", "State": "TEXAS", "Zip4": 752272507.0, "ZIP": 75227.0, "NAICS": 445110.0, "NAICS_Desc": "Supermarkets and Other Grocery (except Convenience) Stores", "Type": "Supermarket" }, "geometry": { "type": "Point", "coordinates": [ 2525347.6689832667, 6970785.2923449399 ] } },
{ "type": "Feature", "properties": { "X": -96.819934973900004, "Y": 32.744458002400002, "Name": "SUPERMERCADO MONTERREY", "Address": "300 E JEFFERSON BLVD", "City": "DALLAS", "County": "DALLAS", "State": "TEXAS", "Zip4": 752032632.0, "ZIP": 75203.0, "NAICS": 445110.0, "NAICS_Desc": "Supermarkets and Other Grocery (except Convenience) Stores", "Type": "Supermarket" }, "geometry": { "type": "Point", "coordinates": [ 2485014.7264648243, 6957909.5877532838 ] } },
{ "type": "Feature", "properties": { "X": -96.683027194000005, "Y": 32.738642758300003, "Name": "EL RANCHO NO 8", "Address": "1515 S BUCKNER BLVD # 301", "City": "DALLAS", "County": "DALLAS", "State": "TEXAS", "Zip4": 752171763.0, "ZIP": 75217.0, "NAICS": 445110.0, "NAICS_Desc": "Supermarkets and Other Grocery (except Convenience) Stores", "Type": "Supermarket" }, "geometry": { "type": "Point", "coordinates": [ 2527137.8404381075, 6956494.8552525202 ] } },
{ "type": "Feature", "properties": { "X": -96.831631668300005, "Y": 32.7431277524, "Name": "JERRY'S SUPERMARKETS, INC", "Address": "532 W JEFFERSON BLVD", "City": "DALLAS", "County": "DALLAS", "State": "TEXAS", "Zip4": 752084722.0, "ZIP": 75208.0, "NAICS": 445110.0, "NAICS_Desc": "Supermarkets and Other Grocery (except Convenience) Stores", "Type": "Supermarket" }, "geometry": { "type": "Point", "coordinates": [ 2481426.7146348092, 6957368.3912816886 ] } },
{ "type": "Feature", "properties": { "X": -96.859276023199996, "Y": 32.748857998600002, "Name": "MAYA FOODS INC.", "Address": "2515 W JEFFERSON BLVD", "City": "DALLAS", "County": "DALLAS", "State": "TEXAS", "Zip4": 752112629.0, "ZIP": 75211.0, "NAICS": 445110.0, "NAICS_Desc": "Supermarkets and Other Grocery (except Convenience) Stores", "Type": "Supermarket" }, "geometry": { "type": "Point", "coordinates": [ 2472895.8150051096, 6959318.9625673257 ] } },
{ "type": "Feature", "properties": { "X": -96.663627567099994, "Y": 32.843221590299997, "Name": "SUPER MERCADO MONTEREY", "Address": "10880 FERGUSON RD", "City": "DALLAS", "County": "DALLAS", "State": "TEXAS", "Zip4": 752282616.0, "ZIP": 75228.0, "NAICS": 445110.0, "NAICS_Desc": "Supermarkets and Other Grocery (except Convenience) Stores", "Type": "Supermarket" }, "geometry": { "type": "Point", "coordinates": [ 2532436.7278925716, 6994638.9827342918 ] } },
{ "type": "Feature", "properties": { "X": -96.803911521700002, "Y": 32.90923125, "Name": "WHOLE FOODS MARKET ROCKY MOUNTAIN\/SOUTHWEST, L.P.", "Address": "11770 PRESTON RD STE 714", "City": "DALLAS", "County": "DALLAS", "State": "TEXAS", "Zip4": 75230.0, "ZIP": 75230.0, "NAICS": 445110.0, "NAICS_Desc": "Supermarkets and Other Grocery (except Convenience) Stores", "Type": "Supermarket" }, "geometry": { "type": "Point", "coordinates": [ 2488972.7345960876, 7017926.3483126713 ] } },
{ "type": "Feature", "properties": { "X": -96.759289976600002, "Y": 32.759712982300002, "Name": "ALI MOHAMUD", "Address": "3945 MYRTLE ST", "City": "DALLAS", "County": "DALLAS", "State": "TEXAS", "Zip4": 752153819.0, "ZIP": 75215.0, "NAICS": 445110.0, "NAICS_Desc": "Supermarkets and Other Grocery (except Convenience) Stores", "Type": "Supermarket" }, "geometry": { "type": "Point", "coordinates": [ 2503565.6320946175, 6963762.1886386275 ] } },
{ "type": "Feature", "properties": { "X": -96.764613993799998, "Y": 32.909142492800001, "Name": "1ST CHOICE GROCERY & CHECK CASHING", "Address": "8122 FOREST LN", "City": "DALLAS", "County": "DALLAS", "State": "TEXAS", "Zip4": 752433902.0, "ZIP": 75243.0, "NAICS": 445110.0, "NAICS_Desc": "Supermarkets and Other Grocery (except Convenience) Stores", "Type": "Supermarket" }, "geometry": { "type": "Point", "coordinates": [ 2501031.2783627133, 7018091.0108576007 ] } },
{ "type": "Feature", "properties": { "X": -96.797193026499997, "Y": 32.994336994800001, "Name": "ASIA MARKET", "Address": "17770 PRESTON RD STE 100", "City": "DALLAS", "County": "COLLIN", "State": "TEXAS", "Zip4": 752526090.0, "ZIP": 75252.0, "NAICS": 445110.0, "NAICS_Desc": "Supermarkets and Other Grocery (except Convenience) Stores", "Type": "Supermarket" }, "geometry": { "type": "Point", "coordinates": [ 2490532.3916929364, 7048917.9931251099 ] } },
{ "type": "Feature", "properties": { "X": -96.756103009300006, "Y": 32.751859013299999, "Name": "ALLEN GROCERY", "Address": "2500 LAWRENCE ST", "City": "DALLAS", "County": "DALLAS", "State": "TEXAS", "Zip4": 752154637.0, "ZIP": 75215.0, "NAICS": 445110.0, "NAICS_Desc": "Supermarkets and Other Grocery (except Convenience) Stores", "Type": "Supermarket" }, "geometry": { "type": "Point", "coordinates": [ 2504592.5928253676, 6960921.5294525865 ] } },
{ "type": "Feature", "properties": { "X": -96.760584857300003, "Y": 32.8711182714, "Name": "ANTHONY I OROGBU", "Address": "8361 PARK LN", "City": "DALLAS", "County": "DALLAS", "State": "TEXAS", "Zip4": 752316607.0, "ZIP": 75231.0, "NAICS": 445110.0, "NAICS_Desc": "Supermarkets and Other Grocery (except Convenience) Stores", "Type": "Supermarket" }, "geometry": { "type": "Point", "coordinates": [ 2502496.6073757792, 7004279.8490672195 ] } },
{ "type": "Feature", "properties": { "X": -96.790902328300007, "Y": 32.688628312500001, "Name": "AUTRY'S GROCERY STORE", "Address": "4903 S LANCASTER RD", "City": "DALLAS", "County": "DALLAS", "State": "TEXAS", "Zip4": 752167401.0, "ZIP": 75216.0, "NAICS": 445110.0, "NAICS_Desc": "Supermarkets and Other Grocery (except Convenience) Stores", "Type": "Supermarket" }, "geometry": { "type": "Point", "coordinates": [ 2494270.0853518262, 6937745.2787096854 ] } },
{ "type": "Feature", "properties": { "X": -96.832951754600003, "Y": 32.749401920700002, "Name": "BROWN SACK MARKET, LLC", "Address": "634 W DAVIS ST", "City": "DALLAS", "County": "DALLAS", "State": "TEXAS", "Zip4": 752084744.0, "ZIP": 75208.0, "NAICS": 445110.0, "NAICS_Desc": "Supermarkets and Other Grocery (except Convenience) Stores", "Type": "Supermarket" }, "geometry": { "type": "Point", "coordinates": [ 2480984.6790138995, 6959644.2229243079 ] } },
{ "type": "Feature", "properties": { "X": -96.684485011099994, "Y": 32.7409800155, "Name": "BUCKNER DELI", "Address": "1639 S BUCKNER BLVD", "City": "DALLAS", "County": "DALLAS", "State": "TEXAS", "Zip4": 752171895.0, "ZIP": 75217.0, "NAICS": 445110.0, "NAICS_Desc": "Supermarkets and Other Grocery (except Convenience) Stores", "Type": "Supermarket" }, "geometry": { "type": "Point", "coordinates": [ 2526674.9776167483, 6957337.2801126046 ] } },
{ "type": "Feature", "properties": { "X": -96.912562966799996, "Y": 32.749727495400002, "Name": "DAIRYWAY GROCERY", "Address": "5235 W DAVIS ST STE 100", "City": "DALLAS", "County": "DALLAS", "State": "TEXAS", "Zip4": 752111153.0, "ZIP": 75211.0, "NAICS": 445110.0, "NAICS_Desc": "Supermarkets and Other Grocery (except Convenience) Stores", "Type": "Supermarket" }, "geometry": { "type": "Point", "coordinates": [ 2456510.686210223, 6959383.5591424787 ] } },
{ "type": "Feature", "properties": { "X": -96.816320026699998, "Y": 32.851142488800001, "Name": "DALLAS CITY MARKET", "Address": "5600 W LOVERS LN STE 136", "City": "DALLAS", "County": "DALLAS", "State": "TEXAS", "Zip4": 752094331.0, "ZIP": 75209.0, "NAICS": 445110.0, "NAICS_Desc": "Supermarkets and Other Grocery (except Convenience) Stores", "Type": "Supermarket" }, "geometry": { "type": "Point", "coordinates": [ 2485503.9896855634, 6996734.6935446607 ] } },
{ "type": "Feature", "properties": { "X": -96.822103037000005, "Y": 32.811486992399999, "Name": "COST +", "Address": "4438 MAPLE AVE", "City": "DALLAS", "County": "DALLAS", "State": "TEXAS", "Zip4": 752191849.0, "ZIP": 75219.0, "NAICS": 445110.0, "NAICS_Desc": "Supermarkets and Other Grocery (except Convenience) Stores", "Type": "Supermarket" }, "geometry": { "type": "Point", "coordinates": [ 2483958.7778197718, 6982281.2328758119 ] } },
{ "type": "Feature", "properties": { "X": -96.683931754200003, "Y": 32.843068252800002, "Name": "DAIRY WAY", "Address": "1551 CENTERVILLE RD", "City": "DALLAS", "County": "DALLAS", "State": "TEXAS", "Zip4": 752282521.0, "ZIP": 75228.0, "NAICS": 445110.0, "NAICS_Desc": "Supermarkets and Other Grocery (except Convenience) Stores", "Type": "Supermarket" }, "geometry": { "type": "Point", "coordinates": [ 2526203.0474353484, 6994474.8142919969 ] } },
{ "type": "Feature", "properties": { "X": -96.835764899099999, "Y": 32.769730196899999, "Name": "COMMUNITY MARKET", "Address": "778 FORT WORTH AVE", "City": "DALLAS", "County": "DALLAS", "State": "TEXAS", "Zip4": 752081803.0, "ZIP": 75208.0, "NAICS": 445110.0, "NAICS_Desc": "Supermarkets and Other Grocery (except Convenience) Stores", "Type": "Supermarket" }, "geometry": { "type": "Point", "coordinates": [ 2480002.7809205726, 6967025.078815381 ] } },
{ "type": "Feature", "properties": { "X": -96.850345021500004, "Y": 32.817617516399999, "Name": "DRIVE IN SCOTTIE'S CORP", "Address": "1919 RECORD CROSSING RD", "City": "DALLAS", "County": "DALLAS", "State": "TEXAS", "Zip4": 752356222.0, "ZIP": 75235.0, "NAICS": 445110.0, "NAICS_Desc": "Supermarkets and Other Grocery (except Convenience) Stores", "Type": "Supermarket" }, "geometry": { "type": "Point", "coordinates": [ 2475248.3895483306, 6984373.8666357556 ] } },
{ "type": "Feature", "properties": { "X": -96.870706367899999, "Y": 32.8581104525, "Name": "EDDIE ITTY", "Address": "9648 OVERLAKE DR", "City": "DALLAS", "County": "DALLAS", "State": "TEXAS", "Zip4": 752206210.0, "ZIP": 75220.0, "NAICS": 445110.0, "NAICS_Desc": "Supermarkets and Other Grocery (except Convenience) Stores", "Type": "Supermarket" }, "geometry": { "type": "Point", "coordinates": [ 2468765.7403404946, 6999006.047617319 ] } },
{ "type": "Feature", "properties": { "X": -96.763260232600004, "Y": 32.871476273500001, "Name": "EL CENTRO SUPERMARKET", "Address": "8231 PARK LN", "City": "DALLAS", "County": "DALLAS", "State": "TEXAS", "Zip4": 752316022.0, "ZIP": 75231.0, "NAICS": 445110.0, "NAICS_Desc": "Supermarkets and Other Grocery (except Convenience) Stores", "Type": "Supermarket" }, "geometry": { "type": "Point", "coordinates": [ 2501673.1946593043, 7004396.4862156203 ] } },
{ "type": "Feature", "properties": { "X": -96.645453002599993, "Y": 32.735324996899998, "Name": "EL RIO GRANDE", "Address": "10325 LAKE JUNE RD # 400", "City": "DALLAS", "County": "DALLAS", "State": "TEXAS", "Zip4": 752175333.0, "ZIP": 75217.0, "NAICS": 445110.0, "NAICS_Desc": "Supermarkets and Other Grocery (except Convenience) Stores", "Type": "Supermarket" }, "geometry": { "type": "Point", "coordinates": [ 2538710.3416699776, 6955489.9040083755 ] } },
{ "type": "Feature", "properties": { "X": -96.683027194000005, "Y": 32.738642758300003, "Name": "EL RANCH SUPER MARKET 8", "Address": "1515 S BUCKNER BLVD", "City": "DALLAS", "County": "DALLAS", "State": "TEXAS", "Zip4": 752171760.0, "ZIP": 75217.0, "NAICS": 445110.0, "NAICS_Desc": "Supermarkets and Other Grocery (except Convenience) Stores", "Type": "Supermarket" }, "geometry": { "type": "Point", "coordinates": [ 2527137.8404381075, 6956494.8552525202 ] } },
{ "type": "Feature", "properties": { "X": -96.833379965700004, "Y": 32.720815000499996, "Name": "EL RANCHO CARNICERIA Y FRUTERIA 10", "Address": "655 W ILLINOIS AVE", "City": "DALLAS", "County": "DALLAS", "State": "TEXAS", "Zip4": 752241814.0, "ZIP": 75224.0, "NAICS": 445110.0, "NAICS_Desc": "Supermarkets and Other Grocery (except Convenience) Stores", "Type": "Supermarket" }, "geometry": { "type": "Point", "coordinates": [ 2481018.0324947084, 6949243.4414464226 ] } },
{ "type": "Feature", "properties": { "X": -96.832680181699999, "Y": 32.721519462400003, "Name": "EL RANCHO 10", "Address": "900 WYNNEWOOD VLG SHP CTR", "City": "DALLAS", "County": "DALLAS", "State": "TEXAS", "Zip4": 752241833.0, "ZIP": 75224.0, "NAICS": 445110.0, "NAICS_Desc": "Supermarkets and Other Grocery (except Convenience) Stores", "Type": "Supermarket" }, "geometry": { "type": "Point", "coordinates": [ 2481229.144248079, 6949503.1088824524 ] } },
{ "type": "Feature", "properties": { "X": -96.880012013400005, "Y": 32.923533005099998, "Name": "EXTREME INC SUPER SAVER", "Address": "13100 JOSEY LN", "City": "DALLAS", "County": "DALLAS", "State": "TEXAS", "Zip4": 752346351.0, "ZIP": 75234.0, "NAICS": 445110.0, "NAICS_Desc": "Supermarkets and Other Grocery (except Convenience) Stores", "Type": "Supermarket" }, "geometry": { "type": "Point", "coordinates": [ 2465541.706287575, 7022760.2640439346 ] } },
{ "type": "Feature", "properties": { "X": -96.896770036299998, "Y": 32.7788580036, "Name": "FOOD LAND SUPER MARKET", "Address": "4639 SINGLETON BLVD", "City": "DALLAS", "County": "DALLAS", "State": "TEXAS", "Zip4": 752123496.0, "ZIP": 75212.0, "NAICS": 445110.0, "NAICS_Desc": "Supermarkets and Other Grocery (except Convenience) Stores", "Type": "Supermarket" }, "geometry": { "type": "Point", "coordinates": [ 2461203.6550959665, 6970053.8349862704 ] } },
{ "type": "Feature", "properties": { "X": -96.768698998199994, "Y": 32.849474993000001, "Name": "H E BUTT GROCERY CO", "Address": "5750 E LOVERS LN", "City": "DALLAS", "County": "DALLAS", "State": "TEXAS", "Zip4": 752062921.0, "ZIP": 75206.0, "NAICS": 445110.0, "NAICS_Desc": "Supermarkets and Other Grocery (except Convenience) Stores", "Type": "Supermarket" }, "geometry": { "type": "Point", "coordinates": [ 2500135.5681781601, 6996365.8030424444 ] } },
{ "type": "Feature", "properties": { "X": -96.599163405799999, "Y": 32.678671352400002, "Name": "GLADE MART", "Address": "1726 S BELT LINE RD", "City": "DALLAS", "County": "DALLAS", "State": "TEXAS", "Zip4": 752534906.0, "ZIP": 75253.0, "NAICS": 445110.0, "NAICS_Desc": "Supermarkets and Other Grocery (except Convenience) Stores", "Type": "Supermarket" }, "geometry": { "type": "Point", "coordinates": [ 2553314.1979661388, 6935136.9433860276 ] } },
{ "type": "Feature", "properties": { "X": -96.857385820199994, "Y": 32.829280599400001, "Name": "JULIOS SUPER MERCADO", "Address": "7406 HARRY HINES BLVD", "City": "DALLAS", "County": "DALLAS", "State": "TEXAS", "Zip4": 752354016.0, "ZIP": 75235.0, "NAICS": 445110.0, "NAICS_Desc": "Supermarkets and Other Grocery (except Convenience) Stores", "Type": "Supermarket" }, "geometry": { "type": "Point", "coordinates": [ 2473019.400429769, 6988582.5488078697 ] } },
{ "type": "Feature", "properties": { "X": -96.874160800400006, "Y": 32.727855200199997, "Name": "KROGER", "Address": "1610 S WESTMORELAND RD", "City": "DALLAS", "County": "DALLAS", "State": "TEXAS", "Zip4": 752115767.0, "ZIP": 75211.0, "NAICS": 445110.0, "NAICS_Desc": "Supermarkets and Other Grocery (except Convenience) Stores", "Type": "Supermarket" }, "geometry": { "type": "Point", "coordinates": [ 2468438.5108976685, 6951607.8569937721 ] } },
{ "type": "Feature", "properties": { "X": -96.682329546000005, "Y": 32.8058030913, "Name": "LA NUEVA SAN SALVADOR SUPERMARKET", "Address": "3302 N BUCKNER BLVD # 122", "City": "DALLAS", "County": "DALLAS", "State": "TEXAS", "Zip4": 752285616.0, "ZIP": 75228.0, "NAICS": 445110.0, "NAICS_Desc": "Supermarkets and Other Grocery (except Convenience) Stores", "Type": "Supermarket" }, "geometry": { "type": "Point", "coordinates": [ 2526929.5860757502, 6980928.0891847573 ] } },
{ "type": "Feature", "properties": { "X": -96.770497670799998, "Y": 32.939603963400003, "Name": "LANE'S GOURMET FOOD, INC.", "Address": "14050 PEYTON DR", "City": "DALLAS", "County": "DALLAS", "State": "TEXAS", "Zip4": 752403719.0, "ZIP": 75240.0, "NAICS": 445110.0, "NAICS_Desc": "Supermarkets and Other Grocery (except Convenience) Stores", "Type": "Supermarket" }, "geometry": { "type": "Point", "coordinates": [ 2499043.5027678846, 7029141.896891498 ] } },
{ "type": "Feature", "properties": { "X": -96.773924779500007, "Y": 32.8035321053, "Name": "LA RANCHERA SUPER MARKET NO 2", "Address": "4823 BRYAN ST", "City": "DALLAS", "County": "DALLAS", "State": "TEXAS", "Zip4": 752048307.0, "ZIP": 75204.0, "NAICS": 445110.0, "NAICS_Desc": "Supermarkets and Other Grocery (except Convenience) Stores", "Type": "Supermarket" }, "geometry": { "type": "Point", "coordinates": [ 2498805.6264736759, 6979627.3834442468 ] } },
{ "type": "Feature", "properties": { "X": -96.782698201399995, "Y": 32.811775288, "Name": "MICHOACANA 28DAL", "Address": "2420 N FITZHUGH AVE", "City": "DALLAS", "County": "DALLAS", "State": "TEXAS", "Zip4": 752043444.0, "ZIP": 75204.0, "NAICS": 445110.0, "NAICS_Desc": "Supermarkets and Other Grocery (except Convenience) Stores", "Type": "Supermarket" }, "geometry": { "type": "Point", "coordinates": [ 2496061.3704726715, 6982581.7168358592 ] } },
{ "type": "Feature", "properties": { "X": -96.866536008599994, "Y": 32.866462512299996, "Name": "MICHOACANA 4 DAL", "Address": "3380 LOMBARDY LN", "City": "DALLAS", "County": "DALLAS", "State": "TEXAS", "Zip4": 752203341.0, "ZIP": 75220.0, "NAICS": 445110.0, "NAICS_Desc": "Supermarkets and Other Grocery (except Convenience) Stores", "Type": "Supermarket" }, "geometry": { "type": "Point", "coordinates": [ 2469998.8795588128, 7002064.0998337818 ] } },
{ "type": "Feature", "properties": { "X": -96.822584996399996, "Y": 32.844429003499997, "Name": "RANDALLS BEVERAGE 2990", "Address": "7117 INWOOD RD", "City": "DALLAS", "County": "DALLAS", "State": "TEXAS", "Zip4": 752094803.0, "ZIP": 75209.0, "NAICS": 445110.0, "NAICS_Desc": "Supermarkets and Other Grocery (except Convenience) Stores", "Type": "Supermarket" }, "geometry": { "type": "Point", "coordinates": [ 2483619.379651119, 6994261.8230837695 ] } },
{ "type": "Feature", "properties": { "X": -96.800702026500005, "Y": 32.983890000300001, "Name": "OPEN MARKET SYSTEMS, INC.", "Address": "17194 PRESTON RD", "City": "DALLAS", "County": "DALLAS", "State": "TEXAS", "Zip4": 752481221.0, "ZIP": 75248.0, "NAICS": 445110.0, "NAICS_Desc": "Supermarkets and Other Grocery (except Convenience) Stores", "Type": "Supermarket" }, "geometry": { "type": "Point", "coordinates": [ 2489518.2021540026, 7045100.3264313713 ] } },
{ "type": "Feature", "properties": { "X": -96.903754005600007, "Y": 32.784898003000002, "Name": "RJ GROCERY STORE", "Address": "3439 MAYBETH ST", "City": "DALLAS", "County": "DALLAS", "State": "TEXAS", "Zip4": 752123228.0, "ZIP": 75212.0, "NAICS": 445110.0, "NAICS_Desc": "Supermarkets and Other Grocery (except Convenience) Stores", "Type": "Supermarket" }, "geometry": { "type": "Point", "coordinates": [ 2459024.1243800623, 6972218.2735258257 ] } },
{ "type": "Feature", "properties": { "X": -96.887036970300002, "Y": 32.685840000699997, "Name": "RICHARD E. COLGIN COMPANY", "Address": "4111 MINT WAY", "City": "DALLAS", "County": "DALLAS", "State": "TEXAS", "Zip4": 752371605.0, "ZIP": 75237.0, "NAICS": 445110.0, "NAICS_Desc": "Supermarkets and Other Grocery (except Convenience) Stores", "Type": "Supermarket" }, "geometry": { "type": "Point", "coordinates": [ 2464714.1319290614, 6936263.4042090839 ] } },
{ "type": "Feature", "properties": { "X": -96.78774, "Y": 32.963333005499997, "Name": "RLS SUPERMARKET CORP", "Address": "7007 ARAPAHO RD", "City": "DALLAS", "County": "DALLAS", "State": "TEXAS", "Zip4": 752484158.0, "ZIP": 75248.0, "NAICS": 445110.0, "NAICS_Desc": "Supermarkets and Other Grocery (except Convenience) Stores", "Type": "Supermarket" }, "geometry": { "type": "Point", "coordinates": [ 2493614.0030882587, 7037686.9799694549 ] } },
{ "type": "Feature", "properties": { "X": -96.802310865500004, "Y": 32.815734576399997, "Name": "TOM THUMB 3569", "Address": "3878 OAK LAWN AVE STE 180", "City": "DALLAS", "County": "DALLAS", "State": "TEXAS", "Zip4": 752194615.0, "ZIP": 75219.0, "NAICS": 445110.0, "NAICS_Desc": "Supermarkets and Other Grocery (except Convenience) Stores", "Type": "Supermarket" }, "geometry": { "type": "Point", "coordinates": [ 2490013.5398985283, 6983924.0084742354 ] } },
{ "type": "Feature", "properties": { "X": -96.730262607699999, "Y": 32.811543235000002, "Name": "TOM THUMB 3570", "Address": "7331 GASTON AVE STE 130", "City": "DALLAS", "County": "DALLAS", "State": "TEXAS", "Zip4": 752144131.0, "ZIP": 75214.0, "NAICS": 445110.0, "NAICS_Desc": "Supermarkets and Other Grocery (except Convenience) Stores", "Type": "Supermarket" }, "geometry": { "type": "Point", "coordinates": [ 2512169.6965819406, 6982764.6485767812 ] } },
{ "type": "Feature", "properties": { "X": -96.770677965499999, "Y": 32.814756018499999, "Name": "TRADER JOES DALLASLOWER GREENVILLE", "Address": "2001 GREENVILLE AVE", "City": "DALLAS", "County": "DALLAS", "State": "TEXAS", "Zip4": 752067123.0, "ZIP": 75206.0, "NAICS": 445110.0, "NAICS_Desc": "Supermarkets and Other Grocery (except Convenience) Stores", "Type": "Supermarket" }, "geometry": { "type": "Point", "coordinates": [ 2499735.8484982452, 6983726.5489004282 ] } },
{ "type": "Feature", "properties": { "X": -96.918618556499993, "Y": 32.737616273900002, "Name": "TRES HERMANOS DULCERIA", "Address": "712 S WALTON WALKER BLVD", "City": "DALLAS", "County": "DALLAS", "State": "TEXAS", "Zip4": 752114235.0, "ZIP": 75211.0, "NAICS": 445110.0, "NAICS_Desc": "Supermarkets and Other Grocery (except Convenience) Stores", "Type": "Supermarket" }, "geometry": { "type": "Point", "coordinates": [ 2454715.5373298866, 6954949.8833443401 ] } },
{ "type": "Feature", "properties": { "X": -96.866064023600003, "Y": 32.867266001600001, "Name": "UMIN INC", "Address": "9727 WEBB CHAPEL RD", "City": "DALLAS", "County": "DALLAS", "State": "TEXAS", "Zip4": 752203555.0, "ZIP": 75220.0, "NAICS": 445110.0, "NAICS_Desc": "Supermarkets and Other Grocery (except Convenience) Stores", "Type": "Supermarket" }, "geometry": { "type": "Point", "coordinates": [ 2470139.2283325675, 7002358.6330681602 ] } },
{ "type": "Feature", "properties": { "X": -96.665322890799999, "Y": 32.7502560163, "Name": "V S CORP INC", "Address": "2233 N PRAIRIE CREEK RD", "City": "DALLAS", "County": "DALLAS", "State": "TEXAS", "Zip4": 752278102.0, "ZIP": 75227.0, "NAICS": 445110.0, "NAICS_Desc": "Supermarkets and Other Grocery (except Convenience) Stores", "Type": "Supermarket" }, "geometry": { "type": "Point", "coordinates": [ 2532506.7894816385, 6960813.7527512629 ] } },
{ "type": "Feature", "properties": { "X": -96.687125981199998, "Y": 32.713241992900002, "Name": "TRIO FOODMART LLC", "Address": "7925 GREAT TRINTY FRST", "City": "DALLAS", "County": "DALLAS", "State": "TEXAS", "Zip4": 752176640.0, "ZIP": 75217.0, "NAICS": 445110.0, "NAICS_Desc": "Supermarkets and Other Grocery (except Convenience) Stores", "Type": "Supermarket" }, "geometry": { "type": "Point", "coordinates": [ 2526037.2302027256, 6947233.5961128147 ] } },
{ "type": "Feature", "properties": { "X": -96.761537583899994, "Y": 32.6732892323, "Name": "VALUE GIANT MEGA MARKET", "Address": "3540 SIMPSON STUART RD", "City": "DALLAS", "County": "DALLAS", "State": "TEXAS", "Zip4": 752414251.0, "ZIP": 75241.0, "NAICS": 445110.0, "NAICS_Desc": "Supermarkets and Other Grocery (except Convenience) Stores", "Type": "Supermarket" }, "geometry": { "type": "Point", "coordinates": [ 2503395.091875637, 6932313.8853790918 ] } },
{ "type": "Feature", "properties": { "X": -96.745852779900005, "Y": 32.930682642800001, "Name": "WORLD FOOD IMPORTS INC", "Address": "13434 FLOYD CIR", "City": "DALLAS", "County": "DALLAS", "State": "TEXAS", "Zip4": 752431504.0, "ZIP": 75243.0, "NAICS": 445110.0, "NAICS_Desc": "Supermarkets and Other Grocery (except Convenience) Stores", "Type": "Supermarket" }, "geometry": { "type": "Point", "coordinates": [ 2506657.0836021351, 7026022.0354276104 ] } }
]
}
