{
"type": "FeatureCollection",
"name": "sm_feature_creditunions",
"crs": { "type": "name", "properties": { "name": "urn:ogc:def:crs:EPSG::2276" } },
"features": [
{ "type": "Feature", "properties": { "X": -96.798995209699996, "Y": 32.782189056900002, "Name": "ADVANCIAL FEDERAL CREDIT UNION", "Address": "1600 PACIFIC AVE STE 100", "City": "DALLAS", "Country": "USA", "County": "DALLAS", "State": "TEXAS", "ZIP": 75201.0 }, "geometry": { "type": "Point", "coordinates": [ 2491262.3918603063, 6971633.5262240618 ] } },
{ "type": "Feature", "properties": { "X": -96.799184819900006, "Y": 32.783867988600001, "Name": "BAPTIST CREDIT UNION", "Address": "521 N ERVAY ST", "City": "DALLAS", "Country": "USA", "County": "DALLAS", "State": "TEXAS", "ZIP": 75201.0 }, "geometry": { "type": "Point", "coordinates": [ 2491163.7775562257, 6972345.8020304739 ] } },
{ "type": "Feature", "properties": { "X": -96.8036175, "Y": 32.788692, "Name": "ADVANCIAL FEDERAL CREDIT UNION", "Address": "1845 WOODALL RODGERS FWY # 1300", "City": "DALLAS", "Country": "USA", "County": "DALLAS", "State": "TEXAS", "ZIP": 75201.0 }, "geometry": { "type": "Point", "coordinates": [ 2489773.393525973, 6974078.543315649 ] } },
{ "type": "Feature", "properties": { "X": -96.819779997699996, "Y": 32.745011634699999, "Name": "CITY CREDIT UNION", "Address": "320 E JEFFERSON BLVD # 100", "City": "DALLAS", "Country": "USA", "County": "DALLAS", "State": "TEXAS", "ZIP": 75203.0 }, "geometry": { "type": "Point", "coordinates": [ 2485061.4938290566, 6958109.6900828183 ] } },
{ "type": "Feature", "properties": { "X": -96.797502652999995, "Y": 32.776482351299997, "Name": "CITY CREDIT UNION", "Address": "1500 MARILLA ST", "City": "DALLAS", "Country": "USA", "County": "DALLAS", "State": "TEXAS", "ZIP": 75201.0 }, "geometry": { "type": "Point", "coordinates": [ 2491724.2055692226, 6969667.6046309769 ] } },
{ "type": "Feature", "properties": { "X": -96.718212, "Y": 32.797368, "Name": "CITY CREDIT UNION", "Address": "7474 FERGUSON RD", "City": "DALLAS", "Country": "USA", "County": "DALLAS", "State": "TEXAS", "ZIP": 75228.0 }, "geometry": { "type": "Point", "coordinates": [ 2515961.1367540509, 6977668.8993238956 ] } },
{ "type": "Feature", "properties": { "X": -96.783813526700001, "Y": 32.98752, "Name": "CITY CREDIT UNION", "Address": "17404 HILLCREST RD", "City": "DALLAS", "Country": "USA", "County": "COLLIN", "State": "TEXAS", "ZIP": 75252.0 }, "geometry": { "type": "Point", "coordinates": [ 2494792.705665797, 7046504.7957725674 ] } },
{ "type": "Feature", "properties": { "X": -96.865796045400003, "Y": 32.819528349700001, "Name": "CORNER STONE CREDIT UNION INC", "Address": "7929 BROOKRIVER DR # 175", "City": "DALLAS", "Country": "USA", "County": "DALLAS", "State": "TEXAS", "ZIP": 75247.0 }, "geometry": { "type": "Point", "coordinates": [ 2470379.1878918856, 6984859.0922925621 ] } },
{ "type": "Feature", "properties": { "X": -96.861510984700004, "Y": 32.997153726900002, "Name": "CITY CREDIT UNION", "Address": "3015 FRANKFORD RD", "City": "DALLAS", "Country": "USA", "County": "COLLIN", "State": "TEXAS", "ZIP": 75287.0 }, "geometry": { "type": "Point", "coordinates": [ 2470794.8822704703, 7049769.6087967306 ] } },
{ "type": "Feature", "properties": { "X": -96.718212, "Y": 32.797368, "Name": "CITY CREDIT UNION", "Address": "7474 PERGUSON RD", "City": "DALLAS", "Country": "USA", "County": "DALLAS", "State": "TEXAS", "ZIP": 75228.0 }, "geometry": { "type": "Point", "coordinates": [ 2515961.1367540509, 6977668.8993238956 ] } },
{ "type": "Feature", "properties": { "X": -96.856934704300002, "Y": 32.6922364964, "Name": "CREDIT UNION OF TEXAS", "Address": "4180 S HAMPTON RD", "City": "DALLAS", "Country": "USA", "County": "DALLAS", "State": "TEXAS", "ZIP": 75224.0 }, "geometry": { "type": "Point", "coordinates": [ 2473940.0413344651, 6938731.6448494792 ] } },
{ "type": "Feature", "properties": { "X": -96.879048199099998, "Y": 32.832960236200002, "Name": "LAS COLINAS FEDERAL CREDIT UNION", "Address": "1430 REGAL ROW STE 360", "City": "DALLAS", "Country": "USA", "County": "DALLAS", "State": "TEXAS", "ZIP": 75247.0 }, "geometry": { "type": "Point", "coordinates": [ 2466422.1400317252, 6989713.0195925683 ] } },
{ "type": "Feature", "properties": { "X": -96.789528, "Y": 32.812227, "Name": "DALLAS TELCO FEDERAL CREDIT UNION (INC)", "Address": "4040 N CENTRAL EXPY", "City": "DALLAS", "Country": "USA", "County": "DALLAS", "State": "TEXAS", "ZIP": 75204.0 }, "geometry": { "type": "Point", "coordinates": [ 2493963.0869182199, 6982709.7484941483 ] } },
{ "type": "Feature", "properties": { "X": -96.87087, "Y": 32.826940499899997, "Name": "GREATER TEXAS FEDERAL CREDIT UNION", "Address": "1317 EMPIRE CENTRAL DR", "City": "DALLAS", "Country": "USA", "County": "DALLAS", "State": "TEXAS", "ZIP": 75247.0 }, "geometry": { "type": "Point", "coordinates": [ 2468892.3184902966, 6987753.7052697241 ] } },
{ "type": "Feature", "properties": { "X": -96.79302, "Y": 32.769648, "Name": "RESOURCE ONE CREDIT UNION", "Address": "1200 BELLEVIEW ST", "City": "DALLAS", "Country": "USA", "County": "DALLAS", "State": "TEXAS", "ZIP": 75215.0 }, "geometry": { "type": "Point", "coordinates": [ 2493142.1187438816, 6967203.9261593968 ] } },
{ "type": "Feature", "properties": { "X": -96.717573, "Y": 32.798115, "Name": "RESOURCE ONE CREDIT UNION", "Address": "7518 FERGUSON RD", "City": "DALLAS", "Country": "USA", "County": "DALLAS", "State": "TEXAS", "ZIP": 75228.0 }, "geometry": { "type": "Point", "coordinates": [ 2516152.841423139, 6977943.9525795579 ] } },
{ "type": "Feature", "properties": { "X": -96.717573, "Y": 32.798115, "Name": "RESOURCE ONE CREDIT UNION", "Address": "7518 FERGUSON RD", "City": "DALLAS", "Country": "USA", "County": "DALLAS", "State": "TEXAS", "ZIP": 75228.0 }, "geometry": { "type": "Point", "coordinates": [ 2516152.841423139, 6977943.9525795579 ] } },
{ "type": "Feature", "properties": { "X": -96.765596790199993, "Y": 32.925012721100003, "Name": "CREDIT UNION OF TEXAS", "Address": "8131 L B JOHNSON FWY 55 STE 550", "City": "DALLAS", "Country": "USA", "County": "DALLAS", "State": "TEXAS", "ZIP": 75251.0 }, "geometry": { "type": "Point", "coordinates": [ 2500621.4597562999, 7024109.6446968168 ] } },
{ "type": "Feature", "properties": { "X": -96.805368, "Y": 32.909589520700003, "Name": "TEXANS CREDIT UNION", "Address": "5925 FOREST LN STE 100", "City": "DALLAS", "Country": "USA", "County": "DALLAS", "State": "TEXAS", "ZIP": 75230.0 }, "geometry": { "type": "Point", "coordinates": [ 2488523.6456973851, 7018197.8097357303 ] } },
{ "type": "Feature", "properties": { "X": -96.799814809300003, "Y": 32.780434431700002, "Name": "PEGASUS CREDIT UNION", "Address": "1416 MAIN ST 116", "City": "DALLAS", "Country": "USA", "County": "DALLAS", "State": "TEXAS", "ZIP": 75202.0 }, "geometry": { "type": "Point", "coordinates": [ 2490990.4137297124, 6971093.6903614849 ] } },
{ "type": "Feature", "properties": { "X": -96.8015655, "Y": 32.778963, "Name": "TEXAS FEDERAL CREDIT UNION", "Address": "1100 COMMERCE ST STE 745", "City": "DALLAS", "Country": "USA", "County": "DALLAS", "State": "TEXAS", "ZIP": 75242.0 }, "geometry": { "type": "Point", "coordinates": [ 2490461.1057332158, 6970549.7452551425 ] } },
{ "type": "Feature", "properties": { "X": -96.796069482099995, "Y": 32.7917356958, "Name": "RESOURCE ONE CREDIT UNION", "Address": "1722 ROUTH ST STE 118", "City": "DALLAS", "Country": "USA", "County": "DALLAS", "State": "TEXAS", "ZIP": 75201.0 }, "geometry": { "type": "Point", "coordinates": [ 2492125.5295697153, 6975295.4949499816 ] } },
{ "type": "Feature", "properties": { "X": -96.8036175, "Y": 32.788692, "Name": "ADVANCIAL FEDERAL CREDIT UNION", "Address": "1845 WOODALL RODGERS FWY # 1300", "City": "DALLAS", "Country": "USA", "County": "DALLAS", "State": "TEXAS", "ZIP": 75201.0 }, "geometry": { "type": "Point", "coordinates": [ 2489773.393525973, 6974078.543315649 ] } },
{ "type": "Feature", "properties": { "X": -96.765596790199993, "Y": 32.925012721100003, "Name": "CREDIT UNION OF TEXAS", "Address": "8131 LBJ FWY STE 400", "City": "DALLAS", "Country": "USA", "County": "DALLAS", "State": "TEXAS", "ZIP": 75251.0 }, "geometry": { "type": "Point", "coordinates": [ 2500621.4597562999, 7024109.6446968168 ] } },
{ "type": "Feature", "properties": { "X": -96.718212, "Y": 32.797368, "Name": "CITY CREDIT UNION", "Address": "7474 FERGUSON RD", "City": "DALLAS", "Country": "USA", "County": "DALLAS", "State": "TEXAS", "ZIP": 75228.0 }, "geometry": { "type": "Point", "coordinates": [ 2515961.1367540509, 6977668.8993238956 ] } },
{ "type": "Feature", "properties": { "X": -96.799421896599995, "Y": 32.777312226500001, "Name": "DALLAS FEDERAL CREDIT UNION (INC)", "Address": "1301 YOUNG ST STE 100", "City": "DALLAS", "Country": "USA", "County": "DALLAS", "State": "TEXAS", "ZIP": 75202.0 }, "geometry": { "type": "Point", "coordinates": [ 2491113.9213567227, 6970039.6353829801 ] } },
{ "type": "Feature", "properties": { "X": -96.8015655, "Y": 32.778963, "Name": "LIBERTY ONE CREDIT UNION", "Address": "1100 COMMERCE ST STE 615", "City": "DALLAS", "Country": "USA", "County": "DALLAS", "State": "TEXAS", "ZIP": 75242.0 }, "geometry": { "type": "Point", "coordinates": [ 2490461.1057332158, 6970549.7452551425 ] } },
{ "type": "Feature", "properties": { "X": -96.868873323000003, "Y": 32.839539203699999, "Name": "EMPLOYEES CREDIT UNION", "Address": "8989 HARRY HINES BLVD", "City": "DALLAS", "Country": "USA", "County": "DALLAS", "State": "TEXAS", "ZIP": 75235.0 }, "geometry": { "type": "Point", "coordinates": [ 2469338.9111010581, 6992201.0520180613 ] } },
{ "type": "Feature", "properties": { "X": -96.789528, "Y": 32.812227, "Name": "DALLAS TELCO FEDERAL CREDIT UNION (INC)", "Address": "4040 N CENTRAL EXPY", "City": "DALLAS", "Country": "USA", "County": "DALLAS", "State": "TEXAS", "ZIP": 75204.0 }, "geometry": { "type": "Point", "coordinates": [ 2493963.0869182199, 6982709.7484941483 ] } },
{ "type": "Feature", "properties": { "X": -96.7178385, "Y": 32.797809, "Name": "LONE STAR CREDIT UNION", "Address": "7508 FERGUSON RD", "City": "DALLAS", "Country": "USA", "County": "DALLAS", "State": "TEXAS", "ZIP": 75228.0 }, "geometry": { "type": "Point", "coordinates": [ 2516073.1627767235, 6977831.2605477273 ] } },
{ "type": "Feature", "properties": { "X": -96.770252832300002, "Y": 32.901542655199997, "Name": "LOCAL 59 IBEW FEDERAL CREDIT UNION", "Address": "7950 NORTHAVEN RD", "City": "DALLAS", "Country": "USA", "County": "DALLAS", "State": "TEXAS", "ZIP": 75230.0 }, "geometry": { "type": "Point", "coordinates": [ 2499348.9324457198, 7015295.9057626426 ] } },
{ "type": "Feature", "properties": { "X": -96.833472852100002, "Y": 32.926454052499999, "Name": "MEMBER SERVICE CENTERS, INC.", "Address": "4455 LYNDON B JOHNSON FWY", "City": "DALLAS", "Country": "USA", "County": "DALLAS", "State": "TEXAS", "ZIP": 75244.0 }, "geometry": { "type": "Point", "coordinates": [ 2479798.2202348858, 7024260.4938045591 ] } },
{ "type": "Feature", "properties": { "X": -96.801759, "Y": 32.781267, "Name": "PEGASUS COMMUNITY CREDIT UNION", "Address": "1201 ELM ST STE 120", "City": "DALLAS", "Country": "USA", "County": "DALLAS", "State": "TEXAS", "ZIP": 75270.0 }, "geometry": { "type": "Point", "coordinates": [ 2490388.0957086384, 6971386.8784233928 ] } },
{ "type": "Feature", "properties": { "X": -96.815214, "Y": 32.934411, "Name": "NEIGHBORHOOD CREDIT UNION", "Address": "13649 MONTFORT DR", "City": "DALLAS", "Country": "USA", "County": "DALLAS", "State": "TEXAS", "ZIP": 75240.0 }, "geometry": { "type": "Point", "coordinates": [ 2485360.1211845577, 7027027.921340555 ] } },
{ "type": "Feature", "properties": { "X": -96.8015655, "Y": 32.778963, "Name": "TEXAS FEDERAL CREDIT UNION INC", "Address": "1100 COMMERCE ST RM 7C15", "City": "DALLAS", "Country": "USA", "County": "DALLAS", "State": "TEXAS", "ZIP": 75242.0 }, "geometry": { "type": "Point", "coordinates": [ 2490461.1057332158, 6970549.7452551425 ] } },
{ "type": "Feature", "properties": { "X": -96.697687411000004, "Y": 32.793317678299999, "Name": "RESOURCE ONE CREDIT UNION", "Address": "8344 E R L THORNTON FWY # 110", "City": "DALLAS", "Country": "USA", "County": "DALLAS", "State": "TEXAS", "ZIP": 75228.0 }, "geometry": { "type": "Point", "coordinates": [ 2522298.6759162247, 6976156.0345674753 ] } },
{ "type": "Feature", "properties": { "X": -96.869364174500006, "Y": 32.845070138799997, "Name": "SOUTHWEST AIRLINES FEDERAL CREDIT UNION", "Address": "2430 SHORECREST DR", "City": "DALLAS", "Country": "USA", "County": "DALLAS", "State": "TEXAS", "ZIP": 75235.0 }, "geometry": { "type": "Point", "coordinates": [ 2469392.1459027231, 6994202.6881066412 ] } },
{ "type": "Feature", "properties": { "X": -96.7115009348, "Y": 32.82586263, "Name": "A T & T EMPLOYEES CREDIT UNION", "Address": "8818 GARLAND RD", "City": "DALLAS", "Country": "USA", "County": "DALLAS", "State": "TEXAS", "ZIP": 75218.0 }, "geometry": { "type": "Point", "coordinates": [ 2517892.6978515536, 6988003.9833124727 ] } },
{ "type": "Feature", "properties": { "X": -96.774490302999993, "Y": 32.790658168199997, "Name": "BAYLOR HEALTH CARE SYSTEM CREDIT UNION", "Address": "4005 CRUTCHER ST STE 130", "City": "DALLAS", "Country": "USA", "County": "DALLAS", "State": "TEXAS", "ZIP": 75246.0 }, "geometry": { "type": "Point", "coordinates": [ 2498650.7389602214, 6975022.1480557323 ] } },
{ "type": "Feature", "properties": { "X": -96.7115009348, "Y": 32.82586263, "Name": "DENISON DISTRICT TELEPHONE CREDIT UNION", "Address": "8818 GARLAND RD", "City": "DALLAS", "Country": "USA", "County": "DALLAS", "State": "TEXAS", "ZIP": 75218.0 }, "geometry": { "type": "Point", "coordinates": [ 2517892.6978515536, 6988003.9833124727 ] } },
{ "type": "Feature", "properties": { "X": -96.8505686771, "Y": 32.6475135544, "Name": "FAITH COOPERATIVE FEDERAL CREDIT UNION", "Address": "2020 W WHEATLAND RD", "City": "DALLAS", "Country": "USA", "County": "DALLAS", "State": "TEXAS", "ZIP": 75232.0 }, "geometry": { "type": "Point", "coordinates": [ 2476164.0897078812, 6922145.4654234797 ] } },
{ "type": "Feature", "properties": { "X": -96.8198625, "Y": 32.92974, "Name": "GALLERIA CREDIT UNION", "Address": "13155 NOEL RD", "City": "DALLAS", "Country": "USA", "County": "DALLAS", "State": "TEXAS", "ZIP": 75240.0 }, "geometry": { "type": "Point", "coordinates": [ 2483961.3556093872, 7025305.9461099803 ] } },
{ "type": "Feature", "properties": { "X": -96.750287290800003, "Y": 32.707960760699997, "Name": "DALLAS SOUTHERN PACIFIC EMPLOYEES CREDIT UNION INC", "Address": "8150A S CENTRAL EXPY A", "City": "DALLAS", "Country": "USA", "County": "DALLAS", "State": "TEXAS", "ZIP": 75241.0 }, "geometry": { "type": "Point", "coordinates": [ 2506648.5644999743, 6944981.1261169016 ] } },
{ "type": "Feature", "properties": { "X": -96.750287290800003, "Y": 32.707960760699997, "Name": "DALLAS UP EMPLOYEE CREDIT UNION", "Address": "8150A S CENTRAL EXPY A", "City": "DALLAS", "Country": "USA", "County": "DALLAS", "State": "TEXAS", "ZIP": 75241.0 }, "geometry": { "type": "Point", "coordinates": [ 2506648.5644999743, 6944981.1261169016 ] } },
{ "type": "Feature", "properties": { "X": -96.780378836200001, "Y": 32.719862762200002, "Name": "GOOD STREET BAPTIST CHURCH FEDERAL CREDIT UNION", "Address": "3110 BONNIE VIEW RD", "City": "DALLAS", "Country": "USA", "County": "DALLAS", "State": "TEXAS", "ZIP": 75216.0 }, "geometry": { "type": "Point", "coordinates": [ 2497382.5702367127, 6949341.0429219753 ] } },
{ "type": "Feature", "properties": { "X": -96.8015655, "Y": 32.778963, "Name": "LIBERTYONE CREDIT UNION", "Address": "1100 COMMERCE ST STE 615", "City": "DALLAS", "Country": "USA", "County": "DALLAS", "State": "TEXAS", "ZIP": 75242.0 }, "geometry": { "type": "Point", "coordinates": [ 2490461.1057332158, 6970549.7452551425 ] } },
{ "type": "Feature", "properties": { "X": -96.797518863600004, "Y": 32.780971678, "Name": "MARCUS NEIMAN EMPLOYEES FEDERAL CREDIT UNION", "Address": "1618 MAIN ST", "City": "DALLAS", "Country": "USA", "County": "DALLAS", "State": "TEXAS", "ZIP": 75201.0 }, "geometry": { "type": "Point", "coordinates": [ 2491708.9017940462, 6971221.6028353125 ] } },
{ "type": "Feature", "properties": { "X": -96.823069800400006, "Y": 32.761286070300002, "Name": "METHODIST HOSPITAL EMPLOYEES FCU", "Address": "1441 N BECKLEY AVE", "City": "DALLAS", "Country": "USA", "County": "DALLAS", "State": "TEXAS", "ZIP": 75203.0 }, "geometry": { "type": "Point", "coordinates": [ 2483955.6728779674, 6964013.4660048932 ] } },
{ "type": "Feature", "properties": { "X": -96.872388606100003, "Y": 32.827789160999998, "Name": "LOCAL FEDERAL CREDIT UNION", "Address": "8500 N STEMMONS FWY", "City": "DALLAS", "Country": "USA", "County": "DALLAS", "State": "TEXAS", "ZIP": 75247.0 }, "geometry": { "type": "Point", "coordinates": [ 2468638.6736563891, 6988064.1380478144 ] } },
{ "type": "Feature", "properties": { "X": -96.860596448899997, "Y": 32.822389410100001, "Name": "NORTH TEXAS TEAMSTERS INC", "Address": "1515 W MOCKINGBIRD LN # 11", "City": "DALLAS", "Country": "USA", "County": "DALLAS", "State": "TEXAS", "ZIP": 75235.0 }, "geometry": { "type": "Point", "coordinates": [ 2472074.8255767226, 6986058.3457995653 ] } },
{ "type": "Feature", "properties": { "X": -96.797518863600004, "Y": 32.780971678, "Name": "NEIMAN MARCUS GROUP EMPLOYEES FEDERAL CREDIT UNION", "Address": "1618 MAIN ST", "City": "DALLAS", "Country": "USA", "County": "DALLAS", "State": "TEXAS", "ZIP": 75201.0 }, "geometry": { "type": "Point", "coordinates": [ 2491708.9017940462, 6971221.6028353125 ] } },
{ "type": "Feature", "properties": { "X": -96.8405535, "Y": 32.6620299422, "Name": "OAK CLIFF CHRISTIAN FEDERAL CREDIT UNION", "Address": "1130 W CAMP WISDOM RD", "City": "DALLAS", "Country": "USA", "County": "DALLAS", "State": "TEXAS", "ZIP": 75232.0 }, "geometry": { "type": "Point", "coordinates": [ 2479152.3688362986, 6927823.0311680585 ] } },
{ "type": "Feature", "properties": { "X": -96.779246747000002, "Y": 32.716748396600003, "Name": "OAK CLIFF COMMUNITY FEDERAL CREDIT UNION", "Address": "2823 E ILLINOIS AVE", "City": "DALLAS", "Country": "USA", "County": "DALLAS", "State": "TEXAS", "ZIP": 75216.0 }, "geometry": { "type": "Point", "coordinates": [ 2497696.7690833807, 6948157.4868901372 ] } },
{ "type": "Feature", "properties": { "X": -96.7676715, "Y": 32.891895, "Name": "PHS CREDIT UNION", "Address": "10670 N CENTRAL EXPY # 110", "City": "DALLAS", "Country": "USA", "County": "DALLAS", "State": "TEXAS", "ZIP": 75231.0 }, "geometry": { "type": "Point", "coordinates": [ 2500198.9274648875, 7011799.5430047214 ] } },
{ "type": "Feature", "properties": { "X": -96.875407274300002, "Y": 32.824882623999997, "Name": "POLLOCK EMPLOYEES CREDIT UNION", "Address": "1140 EMPIRE CENTRAL DR # 605", "City": "DALLAS", "Country": "USA", "County": "DALLAS", "State": "TEXAS", "ZIP": 75247.0 }, "geometry": { "type": "Point", "coordinates": [ 2467511.7513695508, 6986894.6069223136 ] } },
{ "type": "Feature", "properties": { "X": -96.772182419399996, "Y": 32.914154962799998, "Name": "PROCTER & GAMBLE DALLAS CU", "Address": "12221 MERIT DR STE 1370", "City": "DALLAS", "Country": "USA", "County": "DALLAS", "State": "TEXAS", "ZIP": 75251.0 }, "geometry": { "type": "Point", "coordinates": [ 2498551.7722946405, 7019978.8603074849 ] } },
{ "type": "Feature", "properties": { "X": -96.81888422, "Y": 32.961018960600001, "Name": "PRESTIGE COMMUNITY CREDIT UNION", "Address": "15203 KNOLL TRAIL DR # 101", "City": "DALLAS", "Country": "USA", "County": "DALLAS", "State": "TEXAS", "ZIP": 75248.0 }, "geometry": { "type": "Point", "coordinates": [ 2483914.7333272994, 7036678.2662130594 ] } },
{ "type": "Feature", "properties": { "X": -96.772182419399996, "Y": 32.914154962799998, "Name": "PROCTER & GAMBLE TEXAS EMPLOYEES CREDIT UNION", "Address": "12221 MERIT DR STE 1370", "City": "DALLAS", "Country": "USA", "County": "DALLAS", "State": "TEXAS", "ZIP": 75251.0 }, "geometry": { "type": "Point", "coordinates": [ 2498551.7722946405, 7019978.8603074849 ] } },
{ "type": "Feature", "properties": { "X": -96.815529948199995, "Y": 32.926433410800001, "Name": "GO FEDERAL CREDIT UNION", "Address": "5429 L B JOHNSON FWY 60", "City": "DALLAS", "Country": "USA", "County": "DALLAS", "State": "TEXAS", "ZIP": 75240.0 }, "geometry": { "type": "Point", "coordinates": [ 2485306.8735876381, 7024407.3032222241 ] } },
{ "type": "Feature", "properties": { "X": -96.814454704300005, "Y": 32.716346525299997, "Name": "SAINT JOHN DALLAS FEDERAL CREDIT UNION", "Address": "2600 S MARSALIS AVE", "City": "DALLAS", "Country": "USA", "County": "DALLAS", "State": "TEXAS", "ZIP": 75216.0 }, "geometry": { "type": "Point", "coordinates": [ 2486865.8504565507, 6947708.8168557286 ] } },
{ "type": "Feature", "properties": { "X": -96.918650507199999, "Y": 32.739161343299997, "Name": "SUPREME FCU", "Address": "650 S WALTON WALKER BLVD", "City": "DALLAS", "Country": "USA", "County": "DALLAS", "State": "TEXAS", "ZIP": 75211.0 }, "geometry": { "type": "Point", "coordinates": [ 2454894.4527852982, 6955517.2638372332 ] } },
{ "type": "Feature", "properties": { "X": -96.7690072722, "Y": 32.9213739817, "Name": "TEXAS HEALTH RESOURCES CREDIT UNION", "Address": "12770 COIT RD STE 100", "City": "DALLAS", "Country": "USA", "County": "DALLAS", "State": "TEXAS", "ZIP": 75251.0 }, "geometry": { "type": "Point", "coordinates": [ 2499838.7083690464, 7022505.2131944001 ] } },
{ "type": "Feature", "properties": { "X": -96.869557586100001, "Y": 32.820746477999997, "Name": "SOUTHWEST FINANCIAL FEDERAL CREDIT UNION", "Address": "7610 N STEMMONS FWY", "City": "DALLAS", "Country": "USA", "County": "DALLAS", "State": "TEXAS", "ZIP": 75247.0 }, "geometry": { "type": "Point", "coordinates": [ 2469494.0918930471, 6985500.2662070543 ] } },
{ "type": "Feature", "properties": { "X": -96.849333, "Y": 32.809185, "Name": "TEXAS EMPLOYEES CREDIT UNION", "Address": "2777 N STEMMONS FWY", "City": "DALLAS", "Country": "USA", "County": "DALLAS", "State": "TEXAS", "ZIP": 75207.0 }, "geometry": { "type": "Point", "coordinates": [ 2475609.7909477204, 6981309.2857438922 ] } },
{ "type": "Feature", "properties": { "X": -96.7115009348, "Y": 32.82586263, "Name": "TEXAS TELCOM CREDIT UNION", "Address": "8818 GARLAND RD", "City": "DALLAS", "Country": "USA", "County": "DALLAS", "State": "TEXAS", "ZIP": 75218.0 }, "geometry": { "type": "Point", "coordinates": [ 2517892.6978515536, 6988003.9833124727 ] } }
]
}
